orbit/20SA_15DAY_endtime_1100km_adjust.csv

Source,Target,IntervalNumber,StartTime,EndTime,Duration,StartOrbit,EndOrbit
WalkerDelta_14,Ground station 1,1,2023-06-01 00:00:00,2023-06-01 00:06:00,360,1,1
WalkerDelta_17,Ground station 1,1,2023-06-01 00:00:00,2023-06-01 00:08:00,480,1,1
WalkerDelta_13,Ground station 1,1,2023-06-01 00:16:00,2023-06-01 00:34:00,1080,1,1
WalkerDelta_20,Ground station 1,1,2023-06-01 00:22:00,2023-06-01 00:36:00,840,1,1
WalkerDelta_16,Ground station 1,1,2023-06-01 00:44:00,2023-06-01 01:02:00,1080,1,1
WalkerDelta_19,Ground station 1,1,2023-06-01 00:51:00,2023-06-01 01:05:00,840,1,1
WalkerDelta_15,Ground station 1,1,2023-06-01 01:12:00,2023-06-01 01:30:00,1080,1,1
WalkerDelta_18,Ground station 1,1,2023-06-01 01:20:00,2023-06-01 01:34:00,840,1,1
WalkerDelta_14,Ground station 1,2,2023-06-01 01:40:00,2023-06-01 01:57:00,1020,1,2
WalkerDelta_17,Ground station 1,2,2023-06-01 01:49:00,2023-06-01 02:03:00,840,2,2
WalkerDelta_13,Ground station 1,2,2023-06-01 02:09:00,2023-06-01 02:24:00,900,2,2
WalkerDelta_20,Ground station 1,2,2023-06-01 02:17:00,2023-06-01 02:32:00,900,2,2
WalkerDelta_16,Ground station 1,2,2023-06-01 02:38:00,2023-06-01 02:51:00,780,2,2
WalkerDelta_19,Ground station 1,2,2023-06-01 02:45:00,2023-06-01 03:01:00,960,2,2
WalkerDelta_15,Ground station 1,2,2023-06-01 03:07:00,2023-06-01 03:17:00,600,2,2
WalkerDelta_18,Ground station 1,2,2023-06-01 03:13:00,2023-06-01 03:30:00,1020,2,2
WalkerDelta_17,Ground station 1,3,2023-06-01 03:41:00,2023-06-01 03:59:00,1080,3,3
WalkerDelta_20,Ground station 1,3,2023-06-01 04:09:00,2023-06-01 04:28:00,1140,3,3
WalkerDelta_19,Ground station 1,3,2023-06-01 04:37:00,2023-06-01 04:56:00,1140,3,3
WalkerDelta_18,Ground station 1,3,2023-06-01 05:05:00,2023-06-01 05:24:00,1140,3,4
WalkerDelta_17,Ground station 1,4,2023-06-01 05:34:00,2023-06-01 05:52:00,1080,4,4
WalkerDelta_20,Ground station 1,4,2023-06-01 06:02:00,2023-06-01 06:20:00,1080,4,4
WalkerDelta_19,Ground station 1,4,2023-06-01 06:30:00,2023-06-01 06:47:00,1020,4,4
WalkerDelta_18,Ground station 1,4,2023-06-01 06:59:00,2023-06-01 07:14:00,900,4,5
WalkerDelta_17,Ground station 1,5,2023-06-01 07:28:00,2023-06-01 07:40:00,720,5,5
WalkerDelta_20,Ground station 1,5,2023-06-01 07:57:00,2023-06-01 08:06:00,540,5,5
WalkerDelta_12,Ground station 1,1,2023-06-01 09:13:00,2023-06-01 09:27:00,840,6,6
WalkerDelta_11,Ground station 1,1,2023-06-01 09:40:00,2023-06-01 09:56:00,960,6,6
WalkerDelta_12,Ground station 1,2,2023-06-01 11:02:00,2023-06-01 11:21:00,1140,7,7
WalkerDelta_11,Ground station 1,2,2023-06-01 11:30:00,2023-06-01 11:49:00,1140,7,7
WalkerDelta_12,Ground station 1,3,2023-06-01 12:56:00,2023-06-01 13:13:00,1020,8,8
WalkerDelta_15,Ground station 1,3,2023-06-01 13:12:00,2023-06-01 13:17:00,300,8,8
WalkerDelta_11,Ground station 1,3,2023-06-01 13:24:00,2023-06-01 13:41:00,1020,8,8
WalkerDelta_14,Ground station 1,3,2023-06-01 13:36:00,2023-06-01 13:48:00,720,8,8
WalkerDelta_13,Ground station 1,3,2023-06-01 14:03:00,2023-06-01 14:17:00,840,8,8
WalkerDelta_16,Ground station 1,3,2023-06-01 14:29:00,2023-06-01 14:46:00,1020,9,9
WalkerDelta_12,Ground station 1,4,2023-06-01 14:52:00,2023-06-01 15:06:00,840,9,9
WalkerDelta_15,Ground station 1,4,2023-06-01 14:56:00,2023-06-01 15:14:00,1080,9,9
WalkerDelta_11,Ground station 1,4,2023-06-01 15:21:00,2023-06-01 15:35:00,840,9,9
WalkerDelta_14,Ground station 1,4,2023-06-01 15:24:00,2023-06-01 15:42:00,1080,9,9
WalkerDelta_13,Ground station 1,4,2023-06-01 15:52:00,2023-06-01 16:10:00,1080,9,10
WalkerDelta_16,Ground station 1,4,2023-06-01 16:20:00,2023-06-01 16:38:00,1080,10,10
WalkerDelta_12,Ground station 1,5,2023-06-01 16:46:00,2023-06-01 17:02:00,960,10,10
WalkerDelta_15,Ground station 1,5,2023-06-01 16:48:00,2023-06-01 17:06:00,1080,10,10
WalkerDelta_11,Ground station 1,5,2023-06-01 17:14:00,2023-06-01 17:31:00,1020,10,10
WalkerDelta_14,Ground station 1,5,2023-06-01 17:17:00,2023-06-01 17:34:00,1020,10,10
WalkerDelta_13,Ground station 1,5,2023-06-01 17:45:00,2023-06-01 18:02:00,1020,10,11
WalkerDelta_20,Ground station 1,6,2023-06-01 18:01:00,2023-06-01 18:07:00,360,11,11
WalkerDelta_16,Ground station 1,5,2023-06-01 18:14:00,2023-06-01 18:31:00,1020,11,11
WalkerDelta_19,Ground station 1,5,2023-06-01 18:26:00,2023-06-01 18:37:00,660,11,11
WalkerDelta_12,Ground station 1,6,2023-06-01 18:39:00,2023-06-01 18:57:00,1080,11,11
WalkerDelta_15,Ground station 1,6,2023-06-01 18:43:00,2023-06-01 18:59:00,960,11,11
WalkerDelta_18,Ground station 1,5,2023-06-01 18:52:00,2023-06-01 19:07:00,900,11,11
WalkerDelta_11,Ground station 1,6,2023-06-01 19:07:00,2023-06-01 19:25:00,1080,11,11
WalkerDelta_14,Ground station 1,6,2023-06-01 19:12:00,2023-06-01 19:27:00,900,11,11
WalkerDelta_17,Ground station 1,6,2023-06-01 19:19:00,2023-06-01 19:35:00,960,11,11
WalkerDelta_13,Ground station 1,6,2023-06-01 19:41:00,2023-06-01 19:56:00,900,12,12
WalkerDelta_20,Ground station 1,7,2023-06-01 19:46:00,2023-06-01 20:04:00,1080,12,12
WalkerDelta_16,Ground station 1,6,2023-06-01 20:10:00,2023-06-01 20:24:00,840,12,12
WalkerDelta_19,Ground station 1,6,2023-06-01 20:14:00,2023-06-01 20:32:00,1080,12,12
WalkerDelta_12,Ground station 1,7,2023-06-01 20:31:00,2023-06-01 20:49:00,1080,12,12
WalkerDelta_15,Ground station 1,7,2023-06-01 20:39:00,2023-06-01 20:53:00,840,12,12
WalkerDelta_18,Ground station 1,6,2023-06-01 20:41:00,2023-06-01 21:00:00,1140,12,12
WalkerDelta_11,Ground station 1,7,2023-06-01 20:59:00,2023-06-01 21:16:00,1020,12,12
WalkerDelta_14,Ground station 1,7,2023-06-01 21:08:00,2023-06-01 21:22:00,840,12,12
WalkerDelta_17,Ground station 1,7,2023-06-01 21:09:00,2023-06-01 21:28:00,1140,12,13
WalkerDelta_13,Ground station 1,7,2023-06-01 21:36:00,2023-06-01 21:51:00,900,13,13
WalkerDelta_20,Ground station 1,8,2023-06-01 21:38:00,2023-06-01 21:56:00,1080,13,13
WalkerDelta_16,Ground station 1,7,2023-06-01 22:04:00,2023-06-01 22:20:00,960,13,13
WalkerDelta_19,Ground station 1,7,2023-06-01 22:06:00,2023-06-01 22:24:00,1080,13,13
WalkerDelta_12,Ground station 1,8,2023-06-01 22:27:00,2023-06-01 22:34:00,420,13,13
WalkerDelta_15,Ground station 1,8,2023-06-01 22:32:00,2023-06-01 22:49:00,1020,13,13
WalkerDelta_18,Ground station 1,7,2023-06-01 22:35:00,2023-06-01 22:52:00,1020,13,13
WalkerDelta_14,Ground station 1,8,2023-06-01 23:00:00,2023-06-01 23:18:00,1080,13,14
WalkerDelta_17,Ground station 1,8,2023-06-01 23:04:00,2023-06-01 23:20:00,960,13,14
WalkerDelta_13,Ground station 1,8,2023-06-01 23:28:00,2023-06-01 23:47:00,1140,14,14
WalkerDelta_20,Ground station 1,9,2023-06-01 23:33:00,2023-06-01 23:48:00,900,14,14
WalkerDelta_16,Ground station 1,8,2023-06-01 23:56:00,2023-06-02 00:15:00,1140,14,14
WalkerDelta_19,Ground station 1,8,2023-06-02 00:02:00,2023-06-02 00:17:00,900,14,14
WalkerDelta_15,Ground station 1,9,2023-06-02 00:24:00,2023-06-02 00:43:00,1140,14,14
WalkerDelta_18,Ground station 1,8,2023-06-02 00:31:00,2023-06-02 00:45:00,840,14,14
WalkerDelta_14,Ground station 1,9,2023-06-02 00:52:00,2023-06-02 01:11:00,1140,14,15
WalkerDelta_17,Ground station 1,9,2023-06-02 01:00:00,2023-06-02 01:14:00,840,14,15
WalkerDelta_13,Ground station 1,9,2023-06-02 01:21:00,2023-06-02 01:38:00,1020,15,15
WalkerDelta_20,Ground station 1,10,2023-06-02 01:29:00,2023-06-02 01:43:00,840,15,15
WalkerDelta_16,Ground station 1,9,2023-06-02 01:49:00,2023-06-02 02:06:00,1020,15,15
WalkerDelta_19,Ground station 1,9,2023-06-02 01:57:00,2023-06-02 02:12:00,900,15,15
WalkerDelta_15,Ground station 1,10,2023-06-02 02:18:00,2023-06-02 02:32:00,840,15,15
WalkerDelta_18,Ground station 1,9,2023-06-02 02:26:00,2023-06-02 02:41:00,900,15,15
WalkerDelta_14,Ground station 1,10,2023-06-02 02:47:00,2023-06-02 02:59:00,720,15,16
WalkerDelta_17,Ground station 1,10,2023-06-02 02:54:00,2023-06-02 03:10:00,960,16,16
WalkerDelta_13,Ground station 1,10,2023-06-02 03:17:00,2023-06-02 03:23:00,360,16,16
WalkerDelta_20,Ground station 1,11,2023-06-02 03:22:00,2023-06-02 03:39:00,1020,16,16
WalkerDelta_19,Ground station 1,10,2023-06-02 03:50:00,2023-06-02 04:08:00,1080,16,16
WalkerDelta_18,Ground station 1,10,2023-06-02 04:18:00,2023-06-02 04:36:00,1080,16,16
WalkerDelta_17,Ground station 1,11,2023-06-02 04:46:00,2023-06-02 05:05:00,1140,17,17
WalkerDelta_20,Ground station 1,12,2023-06-02 05:14:00,2023-06-02 05:33:00,1140,17,17
WalkerDelta_19,Ground station 1,11,2023-06-02 05:42:00,2023-06-02 06:01:00,1140,17,17
WalkerDelta_18,Ground station 1,11,2023-06-02 06:10:00,2023-06-02 06:28:00,1080,17,18
WalkerDelta_17,Ground station 1,12,2023-06-02 06:39:00,2023-06-02 06:55:00,960,18,18
WalkerDelta_20,Ground station 1,13,2023-06-02 07:08:00,2023-06-02 07:22:00,840,18,18
WalkerDelta_19,Ground station 1,12,2023-06-02 07:37:00,2023-06-02 07:48:00,660,18,18
WalkerDelta_18,Ground station 1,12,2023-06-02 08:08:00,2023-06-02 08:12:00,240,18,19
WalkerDelta_12,Ground station 1,9,2023-06-02 08:29:00,2023-06-02 08:37:00,480,19,19
WalkerDelta_11,Ground station 1,8,2023-06-02 08:55:00,2023-06-02 09:07:00,720,19,19
WalkerDelta_12,Ground station 1,10,2023-06-02 10:15:00,2023-06-02 10:33:00,1080,20,20
WalkerDelta_11,Ground station 1,9,2023-06-02 10:43:00,2023-06-02 11:01:00,1080,20,20
WalkerDelta_12,Ground station 1,11,2023-06-02 12:07:00,2023-06-02 12:25:00,1080,21,21
WalkerDelta_11,Ground station 1,10,2023-06-02 12:36:00,2023-06-02 12:53:00,1020,21,21
WalkerDelta_13,Ground station 1,11,2023-06-02 13:19:00,2023-06-02 13:27:00,480,21,21
WalkerDelta_16,Ground station 1,10,2023-06-02 13:44:00,2023-06-02 13:57:00,780,22,22
WalkerDelta_12,Ground station 1,12,2023-06-02 14:02:00,2023-06-02 14:18:00,960,22,22
WalkerDelta_15,Ground station 1,11,2023-06-02 14:10:00,2023-06-02 14:26:00,960,22,22
WalkerDelta_11,Ground station 1,11,2023-06-02 14:32:00,2023-06-02 14:46:00,840,22,22
WalkerDelta_14,Ground station 1,11,2023-06-02 14:37:00,2023-06-02 14:54:00,1020,22,22
WalkerDelta_13,Ground station 1,12,2023-06-02 15:05:00,2023-06-02 15:23:00,1080,22,23
WalkerDelta_16,Ground station 1,11,2023-06-02 15:32:00,2023-06-02 15:51:00,1140,23,23
WalkerDelta_12,Ground station 1,13,2023-06-02 15:58:00,2023-06-02 16:12:00,840,23,23
WalkerDelta_15,Ground station 1,12,2023-06-02 16:00:00,2023-06-02 16:19:00,1140,23,23
WalkerDelta_11,Ground station 1,12,2023-06-02 16:27:00,2023-06-02 16:42:00,900,23,23
WalkerDelta_14,Ground station 1,12,2023-06-02 16:28:00,2023-06-02 16:47:00,1140,23,23
WalkerDelta_13,Ground station 1,13,2023-06-02 16:57:00,2023-06-02 17:15:00,1080,23,24
WalkerDelta_16,Ground station 1,12,2023-06-02 17:25:00,2023-06-02 17:43:00,1080,24,24
WalkerDelta_12,Ground station 1,14,2023-06-02 17:51:00,2023-06-02 18:09:00,1080,24,24
WalkerDelta_15,Ground station 1,13,2023-06-02 17:54:00,2023-06-02 18:11:00,1020,24,24
WalkerDelta_18,Ground station 1,13,2023-06-02 18:08:00,2023-06-02 18:17:00,540,24,24
WalkerDelta_11,Ground station 1,13,2023-06-02 18:19:00,2023-06-02 18:37:00,1080,24,24
WalkerDelta_14,Ground station 1,13,2023-06-02 18:23:00,2023-06-02 18:39:00,960,24,24
WalkerDelta_17,Ground station 1,13,2023-06-02 18:34:00,2023-06-02 18:47:00,780,24,24
WalkerDelta_13,Ground station 1,14,2023-06-02 18:52:00,2023-06-02 19:07:00,900,24,25
WalkerDelta_20,Ground station 1,14,2023-06-02 19:00:00,2023-06-02 19:16:00,960,25,25
WalkerDelta_16,Ground station 1,13,2023-06-02 19:21:00,2023-06-02 19:36:00,900,25,25
WalkerDelta_19,Ground station 1,13,2023-06-02 19:27:00,2023-06-02 19:44:00,1020,25,25
WalkerDelta_12,Ground station 1,15,2023-06-02 19:43:00,2023-06-02 20:02:00,1140,25,25
WalkerDelta_15,Ground station 1,14,2023-06-02 19:50:00,2023-06-02 20:04:00,840,25,25
WalkerDelta_18,Ground station 1,14,2023-06-02 19:54:00,2023-06-02 20:12:00,1080,25,25
WalkerDelta_11,Ground station 1,14,2023-06-02 20:11:00,2023-06-02 20:30:00,1140,25,25
WalkerDelta_14,Ground station 1,14,2023-06-02 20:19:00,2023-06-02 20:33:00,840,25,25
WalkerDelta_17,Ground station 1,14,2023-06-02 20:22:00,2023-06-02 20:41:00,1140,25,25
WalkerDelta_13,Ground station 1,15,2023-06-02 20:48:00,2023-06-02 21:02:00,840,26,26
WalkerDelta_20,Ground station 1,15,2023-06-02 20:50:00,2023-06-02 21:09:00,1140,26,26
WalkerDelta_16,Ground station 1,14,2023-06-02 21:16:00,2023-06-02 21:31:00,900,26,26
WalkerDelta_19,Ground station 1,14,2023-06-02 21:18:00,2023-06-02 21:37:00,1140,26,26
WalkerDelta_12,Ground station 1,16,2023-06-02 21:37:00,2023-06-02 21:51:00,840,26,26
WalkerDelta_15,Ground station 1,15,2023-06-02 21:45:00,2023-06-02 22:00:00,900,26,26
WalkerDelta_18,Ground station 1,15,2023-06-02 21:47:00,2023-06-02 22:05:00,1080,26,26
WalkerDelta_11,Ground station 1,15,2023-06-02 22:07:00,2023-06-02 22:17:00,600,26,26
WalkerDelta_14,Ground station 1,15,2023-06-02 22:13:00,2023-06-02 22:29:00,960,26,27
WalkerDelta_17,Ground station 1,15,2023-06-02 22:15:00,2023-06-02 22:33:00,1080,26,27
WalkerDelta_13,Ground station 1,16,2023-06-02 22:41:00,2023-06-02 22:58:00,1020,27,27
WalkerDelta_20,Ground station 1,16,2023-06-02 22:44:00,2023-06-02 23:01:00,1020,27,27
WalkerDelta_16,Ground station 1,15,2023-06-02 23:09:00,2023-06-02 23:27:00,1080,27,27
WalkerDelta_19,Ground station 1,15,2023-06-02 23:13:00,2023-06-02 23:29:00,960,27,27
WalkerDelta_15,Ground station 1,16,2023-06-02 23:37:00,2023-06-02 23:55:00,1080,27,27
WalkerDelta_18,Ground station 1,16,2023-06-02 23:42:00,2023-06-02 23:57:00,900,27,27
WalkerDelta_14,Ground station 1,16,2023-06-03 00:05:00,2023-06-03 00:24:00,1140,27,28
WalkerDelta_17,Ground station 1,16,2023-06-03 00:11:00,2023-06-03 00:26:00,900,27,28
WalkerDelta_13,Ground station 1,17,2023-06-03 00:33:00,2023-06-03 00:52:00,1140,28,28
WalkerDelta_20,Ground station 1,17,2023-06-03 00:40:00,2023-06-03 00:54:00,840,28,28
WalkerDelta_16,Ground station 1,16,2023-06-03 01:01:00,2023-06-03 01:19:00,1080,28,28
WalkerDelta_19,Ground station 1,16,2023-06-03 01:09:00,2023-06-03 01:23:00,840,28,28
WalkerDelta_15,Ground station 1,17,2023-06-03 01:29:00,2023-06-03 01:47:00,1080,28,28
WalkerDelta_18,Ground station 1,17,2023-06-03 01:38:00,2023-06-03 01:52:00,840,28,28
WalkerDelta_14,Ground station 1,17,2023-06-03 01:58:00,2023-06-03 02:14:00,960,28,29
WalkerDelta_17,Ground station 1,17,2023-06-03 02:06:00,2023-06-03 02:21:00,900,29,29
WalkerDelta_13,Ground station 1,18,2023-06-03 02:27:00,2023-06-03 02:40:00,780,29,29
WalkerDelta_20,Ground station 1,18,2023-06-03 02:34:00,2023-06-03 02:50:00,960,29,29
WalkerDelta_16,Ground station 1,17,2023-06-03 02:56:00,2023-06-03 03:06:00,600,29,29
WalkerDelta_19,Ground station 1,17,2023-06-03 03:03:00,2023-06-03 03:19:00,960,29,29
WalkerDelta_18,Ground station 1,18,2023-06-03 03:31:00,2023-06-03 03:48:00,1020,29,29
WalkerDelta_17,Ground station 1,18,2023-06-03 03:59:00,2023-06-03 04:17:00,1080,30,30
WalkerDelta_20,Ground station 1,19,2023-06-03 04:27:00,2023-06-03 04:45:00,1080,30,30
WalkerDelta_19,Ground station 1,18,2023-06-03 04:55:00,2023-06-03 05:13:00,1080,30,30
WalkerDelta_18,Ground station 1,19,2023-06-03 05:23:00,2023-06-03 05:41:00,1080,30,31
WalkerDelta_17,Ground station 1,19,2023-06-03 05:51:00,2023-06-03 06:09:00,1080,31,31
WalkerDelta_20,Ground station 1,20,2023-06-03 06:19:00,2023-06-03 06:36:00,1020,31,31
WalkerDelta_19,Ground station 1,19,2023-06-03 06:48:00,2023-06-03 07:03:00,900,31,31
WalkerDelta_18,Ground station 1,20,2023-06-03 07:17:00,2023-06-03 07:30:00,780,31,32
WalkerDelta_17,Ground station 1,20,2023-06-03 07:46:00,2023-06-03 07:55:00,540,32,32
WalkerDelta_12,Ground station 1,17,2023-06-03 09:29:00,2023-06-03 09:45:00,960,33,33
WalkerDelta_11,Ground station 1,16,2023-06-03 09:56:00,2023-06-03 10:13:00,1020,33,33
WalkerDelta_12,Ground station 1,18,2023-06-03 11:19:00,2023-06-03 11:38:00,1140,34,34
WalkerDelta_11,Ground station 1,17,2023-06-03 11:47:00,2023-06-03 12:06:00,1140,34,34
WalkerDelta_16,Ground station 1,18,2023-06-03 13:02:00,2023-06-03 13:05:00,180,35,35
WalkerDelta_12,Ground station 1,19,2023-06-03 13:13:00,2023-06-03 13:30:00,1020,35,35
WalkerDelta_15,Ground station 1,18,2023-06-03 13:26:00,2023-06-03 13:37:00,660,35,35
WalkerDelta_11,Ground station 1,18,2023-06-03 13:42:00,2023-06-03 13:58:00,960,35,35
WalkerDelta_14,Ground station 1,18,2023-06-03 13:52:00,2023-06-03 14:06:00,840,35,35
WalkerDelta_13,Ground station 1,19,2023-06-03 14:19:00,2023-06-03 14:35:00,960,35,36
WalkerDelta_16,Ground station 1,19,2023-06-03 14:46:00,2023-06-03 15:03:00,1020,36,36
WalkerDelta_12,Ground station 1,20,2023-06-03 15:10:00,2023-06-03 15:24:00,840,36,36
WalkerDelta_15,Ground station 1,19,2023-06-03 15:13:00,2023-06-03 15:31:00,1080,36,36
WalkerDelta_11,Ground station 1,19,2023-06-03 15:38:00,2023-06-03 15:53:00,900,36,36
WalkerDelta_14,Ground station 1,19,2023-06-03 15:41:00,2023-06-03 16:00:00,1140,36,36
WalkerDelta_13,Ground station 1,20,2023-06-03 16:09:00,2023-06-03 16:28:00,1140,36,37
WalkerDelta_16,Ground station 1,20,2023-06-03 16:37:00,2023-06-03 16:56:00,1140,37,37
WalkerDelta_12,Ground station 1,21,2023-06-03 17:04:00,2023-06-03 17:20:00,960,37,37
WalkerDelta_15,Ground station 1,20,2023-06-03 17:06:00,2023-06-03 17:24:00,1080,37,37
WalkerDelta_11,Ground station 1,20,2023-06-03 17:32:00,2023-06-03 17:49:00,1020,37,37
WalkerDelta_14,Ground station 1,20,2023-06-03 17:34:00,2023-06-03 17:52:00,1080,37,37
WalkerDelta_17,Ground station 1,21,2023-06-03 17:51:00,2023-06-03 17:55:00,240,37,37
WalkerDelta_13,Ground station 1,21,2023-06-03 18:03:00,2023-06-03 18:20:00,1020,37,38
WalkerDelta_20,Ground station 1,21,2023-06-03 18:15:00,2023-06-03 18:26:00,660,38,38
WalkerDelta_16,Ground station 1,21,2023-06-03 18:32:00,2023-06-03 18:48:00,960,38,38
WalkerDelta_19,Ground station 1,20,2023-06-03 18:41:00,2023-06-03 18:56:00,900,38,38
WalkerDelta_12,Ground station 1,22,2023-06-03 18:56:00,2023-06-03 19:14:00,1080,38,38
WalkerDelta_15,Ground station 1,21,2023-06-03 19:01:00,2023-06-03 19:16:00,900,38,38
WalkerDelta_18,Ground station 1,21,2023-06-03 19:08:00,2023-06-03 19:24:00,960,38,38
WalkerDelta_11,Ground station 1,21,2023-06-03 19:24:00,2023-06-03 19:43:00,1140,38,38
WalkerDelta_14,Ground station 1,21,2023-06-03 19:30:00,2023-06-03 19:45:00,900,38,38
WalkerDelta_17,Ground station 1,22,2023-06-03 19:35:00,2023-06-03 19:53:00,1080,38,38
WalkerDelta_13,Ground station 1,22,2023-06-03 19:59:00,2023-06-03 20:13:00,840,39,39
WalkerDelta_20,Ground station 1,22,2023-06-03 20:03:00,2023-06-03 20:21:00,1080,39,39
WalkerDelta_16,Ground station 1,22,2023-06-03 20:28:00,2023-06-03 20:42:00,840,39,39
WalkerDelta_19,Ground station 1,21,2023-06-03 20:31:00,2023-06-03 20:49:00,1080,39,39
WalkerDelta_12,Ground station 1,23,2023-06-03 20:48:00,2023-06-03 21:05:00,1020,39,39
WalkerDelta_15,Ground station 1,22,2023-06-03 20:57:00,2023-06-03 21:11:00,840,39,39
WalkerDelta_18,Ground station 1,22,2023-06-03 20:59:00,2023-06-03 21:17:00,1080,39,39
WalkerDelta_11,Ground station 1,22,2023-06-03 21:17:00,2023-06-03 21:32:00,900,39,39
WalkerDelta_14,Ground station 1,22,2023-06-03 21:25:00,2023-06-03 21:40:00,900,39,39
WalkerDelta_17,Ground station 1,23,2023-06-03 21:27:00,2023-06-03 21:45:00,1080,39,40
WalkerDelta_13,Ground station 1,23,2023-06-03 21:53:00,2023-06-03 22:09:00,960,40,40
WalkerDelta_20,Ground station 1,23,2023-06-03 21:55:00,2023-06-03 22:13:00,1080,40,40
WalkerDelta_16,Ground station 1,23,2023-06-03 22:21:00,2023-06-03 22:38:00,1020,40,40
WalkerDelta_19,Ground station 1,22,2023-06-03 22:24:00,2023-06-03 22:41:00,1020,40,40
WalkerDelta_15,Ground station 1,23,2023-06-03 22:50:00,2023-06-03 23:07:00,1020,40,40
WalkerDelta_18,Ground station 1,23,2023-06-03 22:53:00,2023-06-03 23:09:00,960,40,40
WalkerDelta_14,Ground station 1,23,2023-06-03 23:18:00,2023-06-03 23:36:00,1080,40,41
WalkerDelta_17,Ground station 1,24,2023-06-03 23:22:00,2023-06-03 23:38:00,960,40,41
WalkerDelta_13,Ground station 1,24,2023-06-03 23:46:00,2023-06-04 00:04:00,1080,41,41
WalkerDelta_20,Ground station 1,24,2023-06-03 23:51:00,2023-06-04 00:06:00,900,41,41
WalkerDelta_16,Ground station 1,24,2023-06-04 00:14:00,2023-06-04 00:32:00,1080,41,41
WalkerDelta_19,Ground station 1,23,2023-06-04 00:20:00,2023-06-04 00:34:00,840,41,41
WalkerDelta_15,Ground station 1,24,2023-06-04 00:42:00,2023-06-04 01:00:00,1080,41,41
WalkerDelta_18,Ground station 1,24,2023-06-04 00:49:00,2023-06-04 01:03:00,840,41,41
WalkerDelta_14,Ground station 1,24,2023-06-04 01:10:00,2023-06-04 01:28:00,1080,41,42
WalkerDelta_17,Ground station 1,25,2023-06-04 01:18:00,2023-06-04 01:32:00,840,42,42
WalkerDelta_13,Ground station 1,25,2023-06-04 01:38:00,2023-06-04 01:55:00,1020,42,42
WalkerDelta_20,Ground station 1,25,2023-06-04 01:47:00,2023-06-04 02:01:00,840,42,42
WalkerDelta_16,Ground station 1,25,2023-06-04 02:07:00,2023-06-04 02:22:00,900,42,42
WalkerDelta_19,Ground station 1,24,2023-06-04 02:15:00,2023-06-04 02:30:00,900,42,42
WalkerDelta_15,Ground station 1,25,2023-06-04 02:36:00,2023-06-04 02:48:00,720,42,42
WalkerDelta_18,Ground station 1,25,2023-06-04 02:43:00,2023-06-04 02:59:00,960,42,42
WalkerDelta_14,Ground station 1,25,2023-06-04 03:06:00,2023-06-04 03:13:00,420,43,43
WalkerDelta_17,Ground station 1,26,2023-06-04 03:11:00,2023-06-04 03:28:00,1020,43,43
WalkerDelta_20,Ground station 1,26,2023-06-04 03:39:00,2023-06-04 03:57:00,1080,43,43
WalkerDelta_19,Ground station 1,25,2023-06-04 04:07:00,2023-06-04 04:25:00,1080,43,43
WalkerDelta_18,Ground station 1,26,2023-06-04 04:35:00,2023-06-04 04:54:00,1140,43,44
WalkerDelta_17,Ground station 1,27,2023-06-04 05:03:00,2023-06-04 05:22:00,1140,44,44
WalkerDelta_20,Ground station 1,27,2023-06-04 05:31:00,2023-06-04 05:50:00,1140,44,44
WalkerDelta_19,Ground station 1,26,2023-06-04 06:00:00,2023-06-04 06:17:00,1020,44,44
WalkerDelta_18,Ground station 1,27,2023-06-04 06:28:00,2023-06-04 06:44:00,960,44,45
WalkerDelta_17,Ground station 1,28,2023-06-04 06:57:00,2023-06-04 07:11:00,840,45,45
WalkerDelta_20,Ground station 1,28,2023-06-04 07:26:00,2023-06-04 07:37:00,660,45,45
WalkerDelta_19,Ground station 1,27,2023-06-04 07:56:00,2023-06-04 08:02:00,360,45,45
WalkerDelta_12,Ground station 1,24,2023-06-04 08:44:00,2023-06-04 08:56:00,720,46,46
WalkerDelta_11,Ground station 1,23,2023-06-04 09:10:00,2023-06-04 09:25:00,900,46,46
WalkerDelta_12,Ground station 1,25,2023-06-04 10:32:00,2023-06-04 10:50:00,1080,47,47
WalkerDelta_11,Ground station 1,24,2023-06-04 11:00:00,2023-06-04 11:18:00,1080,47,47
WalkerDelta_12,Ground station 1,26,2023-06-04 12:25:00,2023-06-04 12:42:00,1020,48,48
WalkerDelta_11,Ground station 1,25,2023-06-04 12:54:00,2023-06-04 13:10:00,960,48,48
WalkerDelta_14,Ground station 1,26,2023-06-04 13:08:00,2023-06-04 13:16:00,480,48,48
WalkerDelta_13,Ground station 1,26,2023-06-04 13:33:00,2023-06-04 13:46:00,780,48,48
WalkerDelta_16,Ground station 1,26,2023-06-04 14:00:00,2023-06-04 14:15:00,900,49,49
WalkerDelta_12,Ground station 1,27,2023-06-04 14:21:00,2023-06-04 14:35:00,840,49,49
WalkerDelta_15,Ground station 1,26,2023-06-04 14:27:00,2023-06-04 14:44:00,1020,49,49
WalkerDelta_11,Ground station 1,26,2023-06-04 14:50:00,2023-06-04 15:04:00,840,49,49
WalkerDelta_14,Ground station 1,27,2023-06-04 14:54:00,2023-06-04 15:12:00,1080,49,49
WalkerDelta_13,Ground station 1,27,2023-06-04 15:22:00,2023-06-04 15:40:00,1080,49,50
WalkerDelta_16,Ground station 1,27,2023-06-04 15:49:00,2023-06-04 16:08:00,1140,50,50
WalkerDelta_12,Ground station 1,28,2023-06-04 16:16:00,2023-06-04 16:31:00,900,50,50
WalkerDelta_15,Ground station 1,27,2023-06-04 16:18:00,2023-06-04 16:36:00,1080,50,50
WalkerDelta_11,Ground station 1,27,2023-06-04 16:44:00,2023-06-04 17:00:00,960,50,50
WalkerDelta_14,Ground station 1,28,2023-06-04 16:46:00,2023-06-04 17:04:00,1080,50,50
WalkerDelta_13,Ground station 1,28,2023-06-04 17:15:00,2023-06-04 17:32:00,1020,50,51
WalkerDelta_16,Ground station 1,28,2023-06-04 17:43:00,2023-06-04 18:00:00,1020,51,51
WalkerDelta_19,Ground station 1,28,2023-06-04 17:58:00,2023-06-04 18:06:00,480,51,51
WalkerDelta_12,Ground station 1,29,2023-06-04 18:08:00,2023-06-04 18:26:00,1080,51,51
WalkerDelta_15,Ground station 1,28,2023-06-04 18:12:00,2023-06-04 18:28:00,960,51,51
WalkerDelta_18,Ground station 1,28,2023-06-04 18:23:00,2023-06-04 18:36:00,780,51,51
WalkerDelta_11,Ground station 1,28,2023-06-04 18:36:00,2023-06-04 18:55:00,1140,51,51
WalkerDelta_14,Ground station 1,29,2023-06-04 18:41:00,2023-06-04 18:57:00,960,51,51
WalkerDelta_17,Ground station 1,29,2023-06-04 18:49:00,2023-06-04 19:05:00,960,51,51
WalkerDelta_13,Ground station 1,29,2023-06-04 19:10:00,2023-06-04 19:25:00,900,51,52
WalkerDelta_20,Ground station 1,29,2023-06-04 19:16:00,2023-06-04 19:33:00,1020,52,52
WalkerDelta_16,Ground station 1,29,2023-06-04 19:39:00,2023-06-04 19:54:00,900,52,52
WalkerDelta_19,Ground station 1,29,2023-06-04 19:44:00,2023-06-04 20:02:00,1080,52,52
WalkerDelta_12,Ground station 1,30,2023-06-04 20:01:00,2023-06-04 20:19:00,1080,52,52
WalkerDelta_15,Ground station 1,29,2023-06-04 20:08:00,2023-06-04 20:22:00,840,52,52
WalkerDelta_18,Ground station 1,29,2023-06-04 20:11:00,2023-06-04 20:30:00,1140,52,52
WalkerDelta_11,Ground station 1,29,2023-06-04 20:29:00,2023-06-04 20:46:00,1020,52,52
WalkerDelta_14,Ground station 1,30,2023-06-04 20:37:00,2023-06-04 20:51:00,840,52,52
WalkerDelta_17,Ground station 1,30,2023-06-04 20:39:00,2023-06-04 20:58:00,1140,52,53
WalkerDelta_13,Ground station 1,30,2023-06-04 21:06:00,2023-06-04 21:20:00,840,53,53
WalkerDelta_20,Ground station 1,30,2023-06-04 21:07:00,2023-06-04 21:26:00,1140,53,53
WalkerDelta_16,Ground station 1,30,2023-06-04 21:34:00,2023-06-04 21:49:00,900,53,53
WalkerDelta_19,Ground station 1,30,2023-06-04 21:36:00,2023-06-04 21:54:00,1080,53,53
WalkerDelta_12,Ground station 1,31,2023-06-04 21:55:00,2023-06-04 22:06:00,660,53,53
WalkerDelta_15,Ground station 1,30,2023-06-04 22:02:00,2023-06-04 22:18:00,960,53,53
WalkerDelta_18,Ground station 1,30,2023-06-04 22:04:00,2023-06-04 22:22:00,1080,53,53
WalkerDelta_11,Ground station 1,30,2023-06-04 22:27:00,2023-06-04 22:30:00,180,53,53
WalkerDelta_14,Ground station 1,31,2023-06-04 22:30:00,2023-06-04 22:47:00,1020,53,54
WalkerDelta_17,Ground station 1,31,2023-06-04 22:33:00,2023-06-04 22:50:00,1020,53,54
WalkerDelta_13,Ground station 1,31,2023-06-04 22:58:00,2023-06-04 23:16:00,1080,54,54
WalkerDelta_20,Ground station 1,31,2023-06-04 23:02:00,2023-06-04 23:18:00,960,54,54
WalkerDelta_16,Ground station 1,31,2023-06-04 23:26:00,2023-06-04 23:45:00,1140,54,54
WalkerDelta_19,Ground station 1,31,2023-06-04 23:31:00,2023-06-04 23:46:00,900,54,54
WalkerDelta_15,Ground station 1,31,2023-06-04 23:54:00,2023-06-05 00:13:00,1140,54,54
WalkerDelta_18,Ground station 1,31,2023-06-05 00:00:00,2023-06-05 00:15:00,900,54,54
WalkerDelta_14,Ground station 1,32,2023-06-05 00:22:00,2023-06-05 00:41:00,1140,54,55
WalkerDelta_17,Ground station 1,32,2023-06-05 00:29:00,2023-06-05 00:43:00,840,54,55
WalkerDelta_13,Ground station 1,32,2023-06-05 00:50:00,2023-06-05 01:08:00,1080,55,55
WalkerDelta_20,Ground station 1,32,2023-06-05 00:58:00,2023-06-05 01:12:00,840,55,55
WalkerDelta_16,Ground station 1,32,2023-06-05 01:19:00,2023-06-05 01:36:00,1020,55,55
WalkerDelta_19,Ground station 1,32,2023-06-05 01:27:00,2023-06-05 01:41:00,840,55,55
WalkerDelta_15,Ground station 1,32,2023-06-05 01:47:00,2023-06-05 02:03:00,960,55,55
WalkerDelta_18,Ground station 1,32,2023-06-05 01:55:00,2023-06-05 02:10:00,900,55,55
WalkerDelta_14,Ground station 1,33,2023-06-05 02:16:00,2023-06-05 02:30:00,840,55,56
WalkerDelta_17,Ground station 1,33,2023-06-05 02:24:00,2023-06-05 02:39:00,900,56,56
WalkerDelta_13,Ground station 1,33,2023-06-05 02:45:00,2023-06-05 02:56:00,660,56,56
WalkerDelta_20,Ground station 1,33,2023-06-05 02:52:00,2023-06-05 03:08:00,960,56,56
WalkerDelta_19,Ground station 1,33,2023-06-05 03:20:00,2023-06-05 03:37:00,1020,56,56
WalkerDelta_18,Ground station 1,33,2023-06-05 03:48:00,2023-06-05 04:06:00,1080,56,56
WalkerDelta_17,Ground station 1,34,2023-06-05 04:16:00,2023-06-05 04:34:00,1080,57,57
WalkerDelta_20,Ground station 1,34,2023-06-05 04:44:00,2023-06-05 05:02:00,1080,57,57
WalkerDelta_19,Ground station 1,34,2023-06-05 05:12:00,2023-06-05 05:30:00,1080,57,57
WalkerDelta_18,Ground station 1,34,2023-06-05 05:40:00,2023-06-05 05:58:00,1080,57,58
WalkerDelta_17,Ground station 1,35,2023-06-05 06:08:00,2023-06-05 06:26:00,1080,58,58
WalkerDelta_20,Ground station 1,35,2023-06-05 06:37:00,2023-06-05 06:53:00,960,58,58
WalkerDelta_19,Ground station 1,35,2023-06-05 07:06:00,2023-06-05 07:19:00,780,58,58
WalkerDelta_18,Ground station 1,35,2023-06-05 07:35:00,2023-06-05 07:45:00,600,58,59
WalkerDelta_11,Ground station 1,31,2023-06-05 08:26:00,2023-06-05 08:36:00,600,59,59
WalkerDelta_12,Ground station 1,32,2023-06-05 09:45:00,2023-06-05 10:03:00,1080,60,60
WalkerDelta_11,Ground station 1,32,2023-06-05 10:13:00,2023-06-05 10:31:00,1080,60,60
WalkerDelta_12,Ground station 1,33,2023-06-05 11:37:00,2023-06-05 11:55:00,1080,61,61
WalkerDelta_11,Ground station 1,33,2023-06-05 12:05:00,2023-06-05 12:23:00,1080,61,61
WalkerDelta_16,Ground station 1,33,2023-06-05 13:15:00,2023-06-05 13:25:00,600,62,62
WalkerDelta_12,Ground station 1,34,2023-06-05 13:32:00,2023-06-05 13:47:00,900,62,62
WalkerDelta_15,Ground station 1,33,2023-06-05 13:41:00,2023-06-05 13:55:00,840,62,62
WalkerDelta_11,Ground station 1,34,2023-06-05 14:01:00,2023-06-05 14:16:00,900,62,62
WalkerDelta_14,Ground station 1,34,2023-06-05 14:08:00,2023-06-05 14:24:00,960,62,62
WalkerDelta_13,Ground station 1,34,2023-06-05 14:35:00,2023-06-05 14:52:00,1020,62,63
WalkerDelta_16,Ground station 1,34,2023-06-05 15:02:00,2023-06-05 15:21:00,1140,63,63
WalkerDelta_12,Ground station 1,35,2023-06-05 15:27:00,2023-06-05 15:42:00,900,63,63
WalkerDelta_15,Ground station 1,34,2023-06-05 15:30:00,2023-06-05 15:49:00,1140,63,63
WalkerDelta_11,Ground station 1,35,2023-06-05 15:56:00,2023-06-05 16:11:00,900,63,63
WalkerDelta_14,Ground station 1,35,2023-06-05 15:58:00,2023-06-05 16:17:00,1140,63,63
WalkerDelta_13,Ground station 1,35,2023-06-05 16:26:00,2023-06-05 16:45:00,1140,63,64
WalkerDelta_16,Ground station 1,35,2023-06-05 16:55:00,2023-06-05 17:13:00,1080,64,64
WalkerDelta_12,Ground station 1,36,2023-06-05 17:21:00,2023-06-05 17:38:00,1020,64,64
WalkerDelta_15,Ground station 1,35,2023-06-05 17:23:00,2023-06-05 17:41:00,1080,64,64
WalkerDelta_18,Ground station 1,36,2023-06-05 17:41:00,2023-06-05 17:44:00,180,64,64
WalkerDelta_11,Ground station 1,36,2023-06-05 17:49:00,2023-06-05 18:07:00,1080,64,64
WalkerDelta_14,Ground station 1,36,2023-06-05 17:52:00,2023-06-05 18:09:00,1020,64,64
WalkerDelta_17,Ground station 1,36,2023-06-05 18:05:00,2023-06-05 18:15:00,600,64,64
WalkerDelta_13,Ground station 1,36,2023-06-05 18:21:00,2023-06-05 18:37:00,960,64,65
WalkerDelta_20,Ground station 1,36,2023-06-05 18:31:00,2023-06-05 18:45:00,840,65,65
WalkerDelta_16,Ground station 1,36,2023-06-05 18:50:00,2023-06-05 19:05:00,900,65,65
WalkerDelta_19,Ground station 1,36,2023-06-05 18:57:00,2023-06-05 19:14:00,1020,65,65
WalkerDelta_12,Ground station 1,37,2023-06-05 19:13:00,2023-06-05 19:32:00,1140,65,65
WalkerDelta_15,Ground station 1,36,2023-06-05 19:20:00,2023-06-05 19:34:00,840,65,65
WalkerDelta_18,Ground station 1,37,2023-06-05 19:25:00,2023-06-05 19:42:00,1020,65,65
WalkerDelta_11,Ground station 1,37,2023-06-05 19:41:00,2023-06-05 20:00:00,1140,65,65
WalkerDelta_14,Ground station 1,37,2023-06-05 19:48:00,2023-06-05 20:02:00,840,65,65
WalkerDelta_17,Ground station 1,37,2023-06-05 19:52:00,2023-06-05 20:10:00,1080,65,65
WalkerDelta_13,Ground station 1,37,2023-06-05 20:17:00,2023-06-05 20:31:00,840,66,66
WalkerDelta_20,Ground station 1,37,2023-06-05 20:20:00,2023-06-05 20:38:00,1080,66,66
WalkerDelta_16,Ground station 1,37,2023-06-05 20:46:00,2023-06-05 21:00:00,840,66,66
WalkerDelta_19,Ground station 1,37,2023-06-05 20:48:00,2023-06-05 21:06:00,1080,66,66
WalkerDelta_12,Ground station 1,38,2023-06-05 21:06:00,2023-06-05 21:21:00,900,66,66
WalkerDelta_15,Ground station 1,37,2023-06-05 21:14:00,2023-06-05 21:29:00,900,66,66
WalkerDelta_18,Ground station 1,38,2023-06-05 21:16:00,2023-06-05 21:34:00,1080,66,66
WalkerDelta_11,Ground station 1,38,2023-06-05 21:35:00,2023-06-05 21:48:00,780,66,66
WalkerDelta_14,Ground station 1,38,2023-06-05 21:43:00,2023-06-05 21:59:00,960,66,66
WalkerDelta_17,Ground station 1,38,2023-06-05 21:45:00,2023-06-05 22:02:00,1020,66,67
WalkerDelta_13,Ground station 1,38,2023-06-05 22:11:00,2023-06-05 22:27:00,960,67,67
WalkerDelta_20,Ground station 1,38,2023-06-05 22:13:00,2023-06-05 22:30:00,1020,67,67
WalkerDelta_16,Ground station 1,38,2023-06-05 22:39:00,2023-06-05 22:56:00,1020,67,67
WalkerDelta_19,Ground station 1,38,2023-06-05 22:42:00,2023-06-05 22:58:00,960,67,67
WalkerDelta_15,Ground station 1,38,2023-06-05 23:07:00,2023-06-05 23:25:00,1080,67,67
WalkerDelta_18,Ground station 1,39,2023-06-05 23:11:00,2023-06-05 23:27:00,960,67,67
WalkerDelta_14,Ground station 1,39,2023-06-05 23:35:00,2023-06-05 23:53:00,1080,67,68
WalkerDelta_17,Ground station 1,39,2023-06-05 23:40:00,2023-06-05 23:55:00,900,67,68
WalkerDelta_13,Ground station 1,39,2023-06-06 00:03:00,2023-06-06 00:21:00,1080,68,68
WalkerDelta_20,Ground station 1,39,2023-06-06 00:09:00,2023-06-06 00:23:00,840,68,68
WalkerDelta_16,Ground station 1,39,2023-06-06 00:31:00,2023-06-06 00:49:00,1080,68,68
WalkerDelta_19,Ground station 1,39,2023-06-06 00:38:00,2023-06-06 00:52:00,840,68,68
WalkerDelta_15,Ground station 1,39,2023-06-06 00:59:00,2023-06-06 01:17:00,1080,68,68
WalkerDelta_18,Ground station 1,40,2023-06-06 01:07:00,2023-06-06 01:21:00,840,68,68
WalkerDelta_14,Ground station 1,40,2023-06-06 01:27:00,2023-06-06 01:44:00,1020,68,69
WalkerDelta_17,Ground station 1,40,2023-06-06 01:36:00,2023-06-06 01:50:00,840,69,69
WalkerDelta_13,Ground station 1,40,2023-06-06 01:56:00,2023-06-06 02:11:00,900,69,69
WalkerDelta_20,Ground station 1,40,2023-06-06 02:04:00,2023-06-06 02:19:00,900,69,69
WalkerDelta_16,Ground station 1,40,2023-06-06 02:25:00,2023-06-06 02:37:00,720,69,69
WalkerDelta_19,Ground station 1,40,2023-06-06 02:32:00,2023-06-06 02:48:00,960,69,69
WalkerDelta_15,Ground station 1,40,2023-06-06 02:55:00,2023-06-06 03:03:00,480,69,69
WalkerDelta_18,Ground station 1,41,2023-06-06 03:00:00,2023-06-06 03:17:00,1020,69,69
WalkerDelta_17,Ground station 1,41,2023-06-06 03:28:00,2023-06-06 03:46:00,1080,70,70
WalkerDelta_20,Ground station 1,41,2023-06-06 03:56:00,2023-06-06 04:15:00,1140,70,70
WalkerDelta_19,Ground station 1,41,2023-06-06 04:24:00,2023-06-06 04:43:00,1140,70,70
WalkerDelta_18,Ground station 1,42,2023-06-06 04:52:00,2023-06-06 05:11:00,1140,70,71
WalkerDelta_17,Ground station 1,42,2023-06-06 05:20:00,2023-06-06 05:39:00,1140,71,71
WalkerDelta_20,Ground station 1,42,2023-06-06 05:49:00,2023-06-06 06:06:00,1020,71,71
WalkerDelta_19,Ground station 1,42,2023-06-06 06:17:00,2023-06-06 06:34:00,1020,71,71
WalkerDelta_18,Ground station 1,43,2023-06-06 06:46:00,2023-06-06 07:01:00,900,71,72
WalkerDelta_17,Ground station 1,43,2023-06-06 07:15:00,2023-06-06 07:27:00,720,72,72
WalkerDelta_20,Ground station 1,43,2023-06-06 07:45:00,2023-06-06 07:52:00,420,72,72
WalkerDelta_12,Ground station 1,39,2023-06-06 09:00:00,2023-06-06 09:14:00,840,73,73
WalkerDelta_11,Ground station 1,39,2023-06-06 09:26:00,2023-06-06 09:43:00,1020,73,73
WalkerDelta_12,Ground station 1,40,2023-06-06 10:49:00,2023-06-06 11:08:00,1140,74,74
WalkerDelta_11,Ground station 1,40,2023-06-06 11:17:00,2023-06-06 11:36:00,1140,74,74
WalkerDelta_12,Ground station 1,41,2023-06-06 12:43:00,2023-06-06 13:00:00,1020,75,75
WalkerDelta_15,Ground station 1,41,2023-06-06 12:58:00,2023-06-06 13:05:00,420,75,75
WalkerDelta_11,Ground station 1,41,2023-06-06 13:12:00,2023-06-06 13:28:00,960,75,75
WalkerDelta_14,Ground station 1,41,2023-06-06 13:23:00,2023-06-06 13:35:00,720,75,75
WalkerDelta_13,Ground station 1,41,2023-06-06 13:49:00,2023-06-06 14:04:00,900,75,75
WalkerDelta_16,Ground station 1,41,2023-06-06 14:16:00,2023-06-06 14:33:00,1020,76,76
WalkerDelta_12,Ground station 1,42,2023-06-06 14:39:00,2023-06-06 14:53:00,840,76,76
WalkerDelta_15,Ground station 1,42,2023-06-06 14:43:00,2023-06-06 15:01:00,1080,76,76
WalkerDelta_11,Ground station 1,42,2023-06-06 15:08:00,2023-06-06 15:22:00,840,76,76
WalkerDelta_14,Ground station 1,42,2023-06-06 15:11:00,2023-06-06 15:29:00,1080,76,76
WalkerDelta_13,Ground station 1,42,2023-06-06 15:39:00,2023-06-06 15:57:00,1080,76,77
WalkerDelta_16,Ground station 1,42,2023-06-06 16:07:00,2023-06-06 16:25:00,1080,77,77
WalkerDelta_12,Ground station 1,43,2023-06-06 16:33:00,2023-06-06 16:49:00,960,77,77
WalkerDelta_15,Ground station 1,43,2023-06-06 16:35:00,2023-06-06 16:53:00,1080,77,77
WalkerDelta_11,Ground station 1,43,2023-06-06 17:01:00,2023-06-06 17:18:00,1020,77,77
WalkerDelta_14,Ground station 1,43,2023-06-06 17:04:00,2023-06-06 17:21:00,1020,77,77
WalkerDelta_13,Ground station 1,43,2023-06-06 17:32:00,2023-06-06 17:49:00,1020,77,78
WalkerDelta_20,Ground station 1,44,2023-06-06 17:47:00,2023-06-06 17:55:00,480,78,78
WalkerDelta_16,Ground station 1,43,2023-06-06 18:01:00,2023-06-06 18:17:00,960,78,78
WalkerDelta_19,Ground station 1,43,2023-06-06 18:12:00,2023-06-06 18:25:00,780,78,78
WalkerDelta_12,Ground station 1,44,2023-06-06 18:26:00,2023-06-06 18:44:00,1080,78,78
WalkerDelta_15,Ground station 1,44,2023-06-06 18:30:00,2023-06-06 18:46:00,960,78,78
WalkerDelta_18,Ground station 1,44,2023-06-06 18:39:00,2023-06-06 18:54:00,900,78,78
WalkerDelta_11,Ground station 1,44,2023-06-06 18:54:00,2023-06-06 19:12:00,1080,78,78
WalkerDelta_14,Ground station 1,44,2023-06-06 18:59:00,2023-06-06 19:14:00,900,78,78
WalkerDelta_17,Ground station 1,44,2023-06-06 19:06:00,2023-06-06 19:22:00,960,78,78
WalkerDelta_13,Ground station 1,44,2023-06-06 19:29:00,2023-06-06 19:43:00,840,79,79
WalkerDelta_20,Ground station 1,45,2023-06-06 19:33:00,2023-06-06 19:51:00,1080,79,79
WalkerDelta_16,Ground station 1,44,2023-06-06 19:57:00,2023-06-06 20:11:00,840,79,79
WalkerDelta_19,Ground station 1,44,2023-06-06 20:00:00,2023-06-06 20:19:00,1140,79,79
WalkerDelta_12,Ground station 1,45,2023-06-06 20:18:00,2023-06-06 20:36:00,1080,79,79
WalkerDelta_15,Ground station 1,45,2023-06-06 20:26:00,2023-06-06 20:40:00,840,79,79
WalkerDelta_18,Ground station 1,45,2023-06-06 20:28:00,2023-06-06 20:47:00,1140,79,79
WalkerDelta_11,Ground station 1,45,2023-06-06 20:46:00,2023-06-06 21:03:00,1020,79,79
WalkerDelta_14,Ground station 1,45,2023-06-06 20:55:00,2023-06-06 21:09:00,840,79,79
WalkerDelta_17,Ground station 1,45,2023-06-06 20:56:00,2023-06-06 21:15:00,1140,79,80
WalkerDelta_13,Ground station 1,45,2023-06-06 21:23:00,2023-06-06 21:39:00,960,80,80
WalkerDelta_20,Ground station 1,46,2023-06-06 21:25:00,2023-06-06 21:43:00,1080,80,80
WalkerDelta_16,Ground station 1,45,2023-06-06 21:51:00,2023-06-06 22:08:00,1020,80,80
WalkerDelta_19,Ground station 1,45,2023-06-06 21:53:00,2023-06-06 22:11:00,1080,80,80
WalkerDelta_12,Ground station 1,46,2023-06-06 22:15:00,2023-06-06 22:20:00,300,80,80
WalkerDelta_15,Ground station 1,46,2023-06-06 22:19:00,2023-06-06 22:36:00,1020,80,80
WalkerDelta_18,Ground station 1,46,2023-06-06 22:22:00,2023-06-06 22:39:00,1020,80,80
WalkerDelta_14,Ground station 1,46,2023-06-06 22:47:00,2023-06-06 23:05:00,1080,80,81
WalkerDelta_17,Ground station 1,46,2023-06-06 22:51:00,2023-06-06 23:07:00,960,80,81
WalkerDelta_13,Ground station 1,46,2023-06-06 23:15:00,2023-06-06 23:34:00,1140,81,81
WalkerDelta_20,Ground station 1,47,2023-06-06 23:20:00,2023-06-06 23:35:00,900,81,81
WalkerDelta_16,Ground station 1,46,2023-06-06 23:43:00,2023-06-07 00:02:00,1140,81,81
WalkerDelta_19,Ground station 1,46,2023-06-06 23:49:00,2023-06-07 00:04:00,900,81,81
WalkerDelta_15,Ground station 1,47,2023-06-07 00:11:00,2023-06-07 00:30:00,1140,81,81
WalkerDelta_18,Ground station 1,47,2023-06-07 00:18:00,2023-06-07 00:32:00,840,81,81
WalkerDelta_14,Ground station 1,47,2023-06-07 00:39:00,2023-06-07 00:58:00,1140,81,82
WalkerDelta_17,Ground station 1,47,2023-06-07 00:47:00,2023-06-07 01:01:00,840,81,82
WalkerDelta_13,Ground station 1,47,2023-06-07 01:08:00,2023-06-07 01:25:00,1020,82,82
WalkerDelta_20,Ground station 1,48,2023-06-07 01:16:00,2023-06-07 01:30:00,840,82,82
WalkerDelta_16,Ground station 1,47,2023-06-07 01:36:00,2023-06-07 01:52:00,960,82,82
WalkerDelta_19,Ground station 1,47,2023-06-07 01:44:00,2023-06-07 01:59:00,900,82,82
WalkerDelta_15,Ground station 1,48,2023-06-07 02:05:00,2023-06-07 02:19:00,840,82,82
WalkerDelta_18,Ground station 1,48,2023-06-07 02:13:00,2023-06-07 02:28:00,900,82,82
WalkerDelta_14,Ground station 1,48,2023-06-07 02:34:00,2023-06-07 02:45:00,660,82,83
WalkerDelta_17,Ground station 1,48,2023-06-07 02:41:00,2023-06-07 02:57:00,960,83,83
WalkerDelta_13,Ground station 1,48,2023-06-07 03:06:00,2023-06-07 03:09:00,180,83,83
WalkerDelta_20,Ground station 1,49,2023-06-07 03:09:00,2023-06-07 03:26:00,1020,83,83
WalkerDelta_19,Ground station 1,48,2023-06-07 03:37:00,2023-06-07 03:55:00,1080,83,83
WalkerDelta_18,Ground station 1,49,2023-06-07 04:05:00,2023-06-07 04:23:00,1080,83,84
WalkerDelta_17,Ground station 1,49,2023-06-07 04:33:00,2023-06-07 04:52:00,1140,84,84
WalkerDelta_20,Ground station 1,50,2023-06-07 05:01:00,2023-06-07 05:20:00,1140,84,84
WalkerDelta_19,Ground station 1,49,2023-06-07 05:29:00,2023-06-07 05:47:00,1080,84,84
WalkerDelta_18,Ground station 1,50,2023-06-07 05:57:00,2023-06-07 06:15:00,1080,84,85
WalkerDelta_17,Ground station 1,50,2023-06-07 06:26:00,2023-06-07 06:42:00,960,85,85
WalkerDelta_20,Ground station 1,51,2023-06-07 06:55:00,2023-06-07 07:08:00,780,85,85
WalkerDelta_19,Ground station 1,50,2023-06-07 07:24:00,2023-06-07 07:34:00,600,85,85
WalkerDelta_12,Ground station 1,47,2023-06-07 08:15:00,2023-06-07 08:24:00,540,86,86
WalkerDelta_11,Ground station 1,46,2023-06-07 08:41:00,2023-06-07 08:54:00,780,86,86
WalkerDelta_12,Ground station 1,48,2023-06-07 10:02:00,2023-06-07 10:20:00,1080,87,87
WalkerDelta_11,Ground station 1,47,2023-06-07 10:30:00,2023-06-07 10:48:00,1080,87,87
WalkerDelta_12,Ground station 1,49,2023-06-07 11:54:00,2023-06-07 12:12:00,1080,88,88
WalkerDelta_11,Ground station 1,48,2023-06-07 12:23:00,2023-06-07 12:40:00,1020,88,88
WalkerDelta_13,Ground station 1,49,2023-06-07 13:05:00,2023-06-07 13:14:00,540,88,88
WalkerDelta_16,Ground station 1,48,2023-06-07 13:31:00,2023-06-07 13:44:00,780,89,89
WalkerDelta_12,Ground station 1,50,2023-06-07 13:50:00,2023-06-07 14:05:00,900,89,89
WalkerDelta_15,Ground station 1,49,2023-06-07 13:57:00,2023-06-07 14:13:00,960,89,89
WalkerDelta_11,Ground station 1,49,2023-06-07 14:19:00,2023-06-07 14:33:00,840,89,89
WalkerDelta_14,Ground station 1,49,2023-06-07 14:24:00,2023-06-07 14:41:00,1020,89,89
WalkerDelta_13,Ground station 1,50,2023-06-07 14:52:00,2023-06-07 15:10:00,1080,89,90
WalkerDelta_16,Ground station 1,49,2023-06-07 15:19:00,2023-06-07 15:38:00,1140,90,90
WalkerDelta_12,Ground station 1,51,2023-06-07 15:45:00,2023-06-07 16:00:00,900,90,90
WalkerDelta_15,Ground station 1,50,2023-06-07 15:47:00,2023-06-07 16:06:00,1140,90,90
WalkerDelta_11,Ground station 1,50,2023-06-07 16:14:00,2023-06-07 16:29:00,900,90,90
WalkerDelta_14,Ground station 1,50,2023-06-07 16:15:00,2023-06-07 16:34:00,1140,90,90
WalkerDelta_13,Ground station 1,51,2023-06-07 16:44:00,2023-06-07 17:02:00,1080,90,91
WalkerDelta_16,Ground station 1,50,2023-06-07 17:13:00,2023-06-07 17:30:00,1020,91,91
WalkerDelta_12,Ground station 1,52,2023-06-07 17:38:00,2023-06-07 17:56:00,1080,91,91
WalkerDelta_15,Ground station 1,51,2023-06-07 17:41:00,2023-06-07 17:58:00,1020,91,91
WalkerDelta_18,Ground station 1,51,2023-06-07 17:54:00,2023-06-07 18:04:00,600,91,91
WalkerDelta_11,Ground station 1,51,2023-06-07 18:06:00,2023-06-07 18:24:00,1080,91,91
WalkerDelta_14,Ground station 1,51,2023-06-07 18:10:00,2023-06-07 18:26:00,960,91,91
WalkerDelta_17,Ground station 1,51,2023-06-07 18:20:00,2023-06-07 18:34:00,840,91,91
WalkerDelta_13,Ground station 1,52,2023-06-07 18:39:00,2023-06-07 18:54:00,900,91,92
WalkerDelta_20,Ground station 1,52,2023-06-07 18:47:00,2023-06-07 19:03:00,960,92,92
WalkerDelta_16,Ground station 1,51,2023-06-07 19:09:00,2023-06-07 19:23:00,840,92,92
WalkerDelta_19,Ground station 1,51,2023-06-07 19:14:00,2023-06-07 19:31:00,1020,92,92
WalkerDelta_12,Ground station 1,53,2023-06-07 19:30:00,2023-06-07 19:49:00,1140,92,92
WalkerDelta_15,Ground station 1,52,2023-06-07 19:38:00,2023-06-07 19:52:00,840,92,92
WalkerDelta_18,Ground station 1,52,2023-06-07 19:41:00,2023-06-07 19:59:00,1080,92,92
WalkerDelta_11,Ground station 1,52,2023-06-07 19:58:00,2023-06-07 20:16:00,1080,92,92
WalkerDelta_14,Ground station 1,52,2023-06-07 20:06:00,2023-06-07 20:20:00,840,92,92
WalkerDelta_17,Ground station 1,52,2023-06-07 20:09:00,2023-06-07 20:28:00,1140,92,92
WalkerDelta_13,Ground station 1,53,2023-06-07 20:35:00,2023-06-07 20:49:00,840,93,93
WalkerDelta_20,Ground station 1,53,2023-06-07 20:37:00,2023-06-07 20:56:00,1140,93,93
WalkerDelta_16,Ground station 1,52,2023-06-07 21:03:00,2023-06-07 21:19:00,960,93,93
WalkerDelta_19,Ground station 1,52,2023-06-07 21:05:00,2023-06-07 21:24:00,1140,93,93
WalkerDelta_12,Ground station 1,54,2023-06-07 21:24:00,2023-06-07 21:37:00,780,93,93
WalkerDelta_15,Ground station 1,53,2023-06-07 21:32:00,2023-06-07 21:48:00,960,93,93
WalkerDelta_18,Ground station 1,53,2023-06-07 21:34:00,2023-06-07 21:52:00,1080,93,93
WalkerDelta_11,Ground station 1,53,2023-06-07 21:54:00,2023-06-07 22:03:00,540,93,93
WalkerDelta_14,Ground station 1,53,2023-06-07 22:00:00,2023-06-07 22:17:00,1020,93,94
WalkerDelta_17,Ground station 1,53,2023-06-07 22:02:00,2023-06-07 22:20:00,1080,93,94
WalkerDelta_13,Ground station 1,54,2023-06-07 22:28:00,2023-06-07 22:45:00,1020,94,94
WalkerDelta_20,Ground station 1,54,2023-06-07 22:31:00,2023-06-07 22:48:00,1020,94,94
WalkerDelta_16,Ground station 1,53,2023-06-07 22:56:00,2023-06-07 23:14:00,1080,94,94
WalkerDelta_19,Ground station 1,53,2023-06-07 23:00:00,2023-06-07 23:16:00,960,94,94
WalkerDelta_15,Ground station 1,54,2023-06-07 23:24:00,2023-06-07 23:42:00,1080,94,94
WalkerDelta_18,Ground station 1,54,2023-06-07 23:29:00,2023-06-07 23:44:00,900,94,94
WalkerDelta_14,Ground station 1,54,2023-06-07 23:52:00,2023-06-08 00:11:00,1140,94,95
WalkerDelta_17,Ground station 1,54,2023-06-07 23:58:00,2023-06-08 00:13:00,900,94,95
WalkerDelta_13,Ground station 1,55,2023-06-08 00:20:00,2023-06-08 00:38:00,1080,95,95
WalkerDelta_20,Ground station 1,55,2023-06-08 00:27:00,2023-06-08 00:41:00,840,95,95
WalkerDelta_16,Ground station 1,54,2023-06-08 00:48:00,2023-06-08 01:06:00,1080,95,95
WalkerDelta_19,Ground station 1,54,2023-06-08 00:56:00,2023-06-08 01:10:00,840,95,95
WalkerDelta_15,Ground station 1,55,2023-06-08 01:16:00,2023-06-08 01:33:00,1020,95,95
WalkerDelta_18,Ground station 1,55,2023-06-08 01:25:00,2023-06-08 01:39:00,840,95,95
WalkerDelta_14,Ground station 1,55,2023-06-08 01:45:00,2023-06-08 02:00:00,900,95,96
WalkerDelta_17,Ground station 1,55,2023-06-08 01:53:00,2023-06-08 02:08:00,900,96,96
WalkerDelta_13,Ground station 1,56,2023-06-08 02:14:00,2023-06-08 02:27:00,780,96,96
WalkerDelta_20,Ground station 1,56,2023-06-08 02:21:00,2023-06-08 02:37:00,960,96,96
WalkerDelta_16,Ground station 1,55,2023-06-08 02:44:00,2023-06-08 02:52:00,480,96,96
WalkerDelta_19,Ground station 1,55,2023-06-08 02:49:00,2023-06-08 03:06:00,1020,96,96
WalkerDelta_18,Ground station 1,56,2023-06-08 03:18:00,2023-06-08 03:35:00,1020,96,96
WalkerDelta_17,Ground station 1,56,2023-06-08 03:46:00,2023-06-08 04:04:00,1080,97,97
WalkerDelta_20,Ground station 1,57,2023-06-08 04:14:00,2023-06-08 04:32:00,1080,97,97
WalkerDelta_19,Ground station 1,56,2023-06-08 04:42:00,2023-06-08 05:00:00,1080,97,97
WalkerDelta_18,Ground station 1,57,2023-06-08 05:10:00,2023-06-08 05:28:00,1080,97,98
WalkerDelta_17,Ground station 1,57,2023-06-08 05:38:00,2023-06-08 05:56:00,1080,98,98
WalkerDelta_20,Ground station 1,58,2023-06-08 06:06:00,2023-06-08 06:23:00,1020,98,98
WalkerDelta_19,Ground station 1,57,2023-06-08 06:35:00,2023-06-08 06:50:00,900,98,98
WalkerDelta_18,Ground station 1,58,2023-06-08 07:04:00,2023-06-08 07:16:00,720,98,99
WalkerDelta_17,Ground station 1,58,2023-06-08 07:34:00,2023-06-08 07:41:00,420,99,99
WalkerDelta_11,Ground station 1,54,2023-06-08 07:58:00,2023-06-08 08:03:00,300,99,99
WalkerDelta_12,Ground station 1,55,2023-06-08 09:16:00,2023-06-08 09:32:00,960,100,100
WalkerDelta_11,Ground station 1,55,2023-06-08 09:43:00,2023-06-08 10:00:00,1020,100,100
WalkerDelta_12,Ground station 1,56,2023-06-08 11:06:00,2023-06-08 11:25:00,1140,101,101
WalkerDelta_11,Ground station 1,56,2023-06-08 11:34:00,2023-06-08 11:53:00,1140,101,101
WalkerDelta_16,Ground station 1,56,2023-06-08 12:48:00,2023-06-08 12:53:00,300,102,102
WalkerDelta_12,Ground station 1,57,2023-06-08 13:01:00,2023-06-08 13:17:00,960,102,102
WalkerDelta_15,Ground station 1,56,2023-06-08 13:12:00,2023-06-08 13:24:00,720,102,102
WalkerDelta_11,Ground station 1,57,2023-06-08 13:30:00,2023-06-08 13:45:00,900,102,102
WalkerDelta_14,Ground station 1,56,2023-06-08 13:38:00,2023-06-08 13:53:00,900,102,102
WalkerDelta_13,Ground station 1,57,2023-06-08 14:05:00,2023-06-08 14:22:00,1020,102,103
WalkerDelta_16,Ground station 1,57,2023-06-08 14:32:00,2023-06-08 14:50:00,1080,103,103
WalkerDelta_12,Ground station 1,58,2023-06-08 14:57:00,2023-06-08 15:11:00,840,103,103
WalkerDelta_15,Ground station 1,57,2023-06-08 15:00:00,2023-06-08 15:18:00,1080,103,103
WalkerDelta_11,Ground station 1,58,2023-06-08 15:25:00,2023-06-08 15:40:00,900,103,103
WalkerDelta_14,Ground station 1,57,2023-06-08 15:28:00,2023-06-08 15:46:00,1080,103,103
WalkerDelta_13,Ground station 1,58,2023-06-08 15:56:00,2023-06-08 16:14:00,1080,103,104
WalkerDelta_16,Ground station 1,58,2023-06-08 16:24:00,2023-06-08 16:42:00,1080,104,104
WalkerDelta_12,Ground station 1,59,2023-06-08 16:51:00,2023-06-08 17:07:00,960,104,104
WalkerDelta_15,Ground station 1,58,2023-06-08 16:53:00,2023-06-08 17:10:00,1020,104,104
WalkerDelta_11,Ground station 1,59,2023-06-08 17:19:00,2023-06-08 17:36:00,1020,104,104
WalkerDelta_14,Ground station 1,58,2023-06-08 17:21:00,2023-06-08 17:38:00,1020,104,104
WalkerDelta_17,Ground station 1,59,2023-06-08 17:37:00,2023-06-08 17:43:00,360,104,104
WalkerDelta_13,Ground station 1,59,2023-06-08 17:50:00,2023-06-08 18:07:00,1020,104,105
WalkerDelta_20,Ground station 1,59,2023-06-08 18:02:00,2023-06-08 18:14:00,720,105,105
WalkerDelta_16,Ground station 1,59,2023-06-08 18:19:00,2023-06-08 18:35:00,960,105,105
WalkerDelta_19,Ground station 1,58,2023-06-08 18:28:00,2023-06-08 18:43:00,900,105,105
WalkerDelta_12,Ground station 1,60,2023-06-08 18:43:00,2023-06-08 19:01:00,1080,105,105
WalkerDelta_15,Ground station 1,59,2023-06-08 18:49:00,2023-06-08 19:03:00,840,105,105
WalkerDelta_18,Ground station 1,59,2023-06-08 18:55:00,2023-06-08 19:11:00,960,105,105
WalkerDelta_11,Ground station 1,60,2023-06-08 19:11:00,2023-06-08 19:29:00,1080,105,105
WalkerDelta_14,Ground station 1,59,2023-06-08 19:18:00,2023-06-08 19:32:00,840,105,105
WalkerDelta_17,Ground station 1,60,2023-06-08 19:22:00,2023-06-08 19:40:00,1080,105,105
WalkerDelta_13,Ground station 1,60,2023-06-08 19:47:00,2023-06-08 20:00:00,780,106,106
WalkerDelta_20,Ground station 1,60,2023-06-08 19:50:00,2023-06-08 20:08:00,1080,106,106
WalkerDelta_16,Ground station 1,60,2023-06-08 20:15:00,2023-06-08 20:29:00,840,106,106
WalkerDelta_19,Ground station 1,59,2023-06-08 20:17:00,2023-06-08 20:36:00,1140,106,106
WalkerDelta_12,Ground station 1,61,2023-06-08 20:35:00,2023-06-08 20:52:00,1020,106,106
WalkerDelta_15,Ground station 1,60,2023-06-08 20:44:00,2023-06-08 20:58:00,840,106,106
WalkerDelta_18,Ground station 1,60,2023-06-08 20:46:00,2023-06-08 21:04:00,1080,106,106
WalkerDelta_11,Ground station 1,61,2023-06-08 21:04:00,2023-06-08 21:19:00,900,106,106
WalkerDelta_14,Ground station 1,60,2023-06-08 21:12:00,2023-06-08 21:28:00,960,106,106
WalkerDelta_17,Ground station 1,61,2023-06-08 21:14:00,2023-06-08 21:32:00,1080,106,107
WalkerDelta_13,Ground station 1,61,2023-06-08 21:40:00,2023-06-08 21:57:00,1020,107,107
WalkerDelta_20,Ground station 1,61,2023-06-08 21:42:00,2023-06-08 22:00:00,1080,107,107
WalkerDelta_16,Ground station 1,61,2023-06-08 22:08:00,2023-06-08 22:26:00,1080,107,107
WalkerDelta_19,Ground station 1,60,2023-06-08 22:11:00,2023-06-08 22:28:00,1020,107,107
WalkerDelta_15,Ground station 1,61,2023-06-08 22:36:00,2023-06-08 22:54:00,1080,107,107
WalkerDelta_18,Ground station 1,61,2023-06-08 22:40:00,2023-06-08 22:56:00,960,107,107
WalkerDelta_14,Ground station 1,61,2023-06-08 23:04:00,2023-06-08 23:23:00,1140,107,108
WalkerDelta_17,Ground station 1,62,2023-06-08 23:09:00,2023-06-08 23:24:00,900,107,108
WalkerDelta_13,Ground station 1,62,2023-06-08 23:32:00,2023-06-08 23:51:00,1140,108,108
WalkerDelta_20,Ground station 1,62,2023-06-08 23:38:00,2023-06-08 23:53:00,900,108,108
WalkerDelta_16,Ground station 1,62,2023-06-09 00:00:00,2023-06-09 00:19:00,1140,108,108
WalkerDelta_19,Ground station 1,61,2023-06-09 00:07:00,2023-06-09 00:21:00,840,108,108
WalkerDelta_15,Ground station 1,62,2023-06-09 00:29:00,2023-06-09 00:47:00,1080,108,108
WalkerDelta_18,Ground station 1,62,2023-06-09 00:36:00,2023-06-09 00:50:00,840,108,108
WalkerDelta_14,Ground station 1,62,2023-06-09 00:57:00,2023-06-09 01:14:00,1020,108,109
WalkerDelta_17,Ground station 1,63,2023-06-09 01:05:00,2023-06-09 01:19:00,840,109,109
WalkerDelta_13,Ground station 1,63,2023-06-09 01:25:00,2023-06-09 01:42:00,1020,109,109
WalkerDelta_20,Ground station 1,63,2023-06-09 01:34:00,2023-06-09 01:48:00,840,109,109
WalkerDelta_16,Ground station 1,63,2023-06-09 01:54:00,2023-06-09 02:08:00,840,109,109
WalkerDelta_19,Ground station 1,62,2023-06-09 02:02:00,2023-06-09 02:17:00,900,109,109
WalkerDelta_15,Ground station 1,63,2023-06-09 02:23:00,2023-06-09 02:34:00,660,109,109
WalkerDelta_18,Ground station 1,63,2023-06-09 02:30:00,2023-06-09 02:46:00,960,109,109
WalkerDelta_14,Ground station 1,63,2023-06-09 02:54:00,2023-06-09 02:59:00,300,110,110
WalkerDelta_17,Ground station 1,64,2023-06-09 02:58:00,2023-06-09 03:15:00,1020,110,110
WalkerDelta_20,Ground station 1,64,2023-06-09 03:26:00,2023-06-09 03:44:00,1080,110,110
WalkerDelta_19,Ground station 1,63,2023-06-09 03:54:00,2023-06-09 04:12:00,1080,110,110
WalkerDelta_18,Ground station 1,64,2023-06-09 04:22:00,2023-06-09 04:41:00,1140,110,111
WalkerDelta_17,Ground station 1,65,2023-06-09 04:50:00,2023-06-09 05:09:00,1140,111,111
WalkerDelta_20,Ground station 1,65,2023-06-09 05:18:00,2023-06-09 05:37:00,1140,111,111
WalkerDelta_19,Ground station 1,64,2023-06-09 05:47:00,2023-06-09 06:04:00,1020,111,111
WalkerDelta_18,Ground station 1,65,2023-06-09 06:15:00,2023-06-09 06:31:00,960,111,112
WalkerDelta_17,Ground station 1,66,2023-06-09 06:44:00,2023-06-09 06:58:00,840,112,112
WalkerDelta_20,Ground station 1,66,2023-06-09 07:13:00,2023-06-09 07:24:00,660,112,112
WalkerDelta_19,Ground station 1,65,2023-06-09 07:45:00,2023-06-09 07:48:00,180,112,112
WalkerDelta_12,Ground station 1,62,2023-06-09 08:30:00,2023-06-09 08:43:00,780,113,113
WalkerDelta_11,Ground station 1,62,2023-06-09 08:57:00,2023-06-09 09:12:00,900,113,113
WalkerDelta_12,Ground station 1,63,2023-06-09 10:19:00,2023-06-09 10:37:00,1080,114,114
WalkerDelta_11,Ground station 1,63,2023-06-09 10:47:00,2023-06-09 11:05:00,1080,114,114
WalkerDelta_12,Ground station 1,64,2023-06-09 12:12:00,2023-06-09 12:29:00,1020,115,115
WalkerDelta_11,Ground station 1,64,2023-06-09 12:41:00,2023-06-09 12:57:00,960,115,115
WalkerDelta_14,Ground station 1,64,2023-06-09 12:54:00,2023-06-09 13:03:00,540,115,115
WalkerDelta_13,Ground station 1,64,2023-06-09 13:20:00,2023-06-09 13:33:00,780,115,115
WalkerDelta_16,Ground station 1,64,2023-06-09 13:46:00,2023-06-09 14:02:00,960,116,116
WalkerDelta_12,Ground station 1,65,2023-06-09 14:08:00,2023-06-09 14:22:00,840,116,116
WalkerDelta_15,Ground station 1,64,2023-06-09 14:13:00,2023-06-09 14:31:00,1080,116,116
WalkerDelta_11,Ground station 1,65,2023-06-09 14:37:00,2023-06-09 14:51:00,840,116,116
WalkerDelta_14,Ground station 1,65,2023-06-09 14:41:00,2023-06-09 14:59:00,1080,116,116
WalkerDelta_13,Ground station 1,65,2023-06-09 15:08:00,2023-06-09 15:27:00,1140,116,117
WalkerDelta_16,Ground station 1,65,2023-06-09 15:36:00,2023-06-09 15:55:00,1140,117,117
WalkerDelta_12,Ground station 1,66,2023-06-09 16:03:00,2023-06-09 16:18:00,900,117,117
WalkerDelta_15,Ground station 1,65,2023-06-09 16:05:00,2023-06-09 16:23:00,1080,117,117
WalkerDelta_11,Ground station 1,66,2023-06-09 16:31:00,2023-06-09 16:47:00,960,117,117
WalkerDelta_14,Ground station 1,66,2023-06-09 16:33:00,2023-06-09 16:51:00,1080,117,117
WalkerDelta_13,Ground station 1,66,2023-06-09 17:02:00,2023-06-09 17:19:00,1020,117,118
WalkerDelta_16,Ground station 1,66,2023-06-09 17:30:00,2023-06-09 17:47:00,1020,118,118
WalkerDelta_19,Ground station 1,66,2023-06-09 17:44:00,2023-06-09 17:53:00,540,118,118
WalkerDelta_12,Ground station 1,67,2023-06-09 17:55:00,2023-06-09 18:13:00,1080,118,118
WalkerDelta_15,Ground station 1,66,2023-06-09 17:59:00,2023-06-09 18:15:00,960,118,118
WalkerDelta_18,Ground station 1,66,2023-06-09 18:09:00,2023-06-09 18:23:00,840,118,118
WalkerDelta_11,Ground station 1,67,2023-06-09 18:23:00,2023-06-09 18:42:00,1140,118,118
WalkerDelta_14,Ground station 1,67,2023-06-09 18:29:00,2023-06-09 18:44:00,900,118,118
WalkerDelta_17,Ground station 1,67,2023-06-09 18:36:00,2023-06-09 18:52:00,960,118,118
WalkerDelta_13,Ground station 1,67,2023-06-09 18:58:00,2023-06-09 19:12:00,840,119,119
WalkerDelta_20,Ground station 1,67,2023-06-09 19:03:00,2023-06-09 19:20:00,1020,119,119
WalkerDelta_16,Ground station 1,67,2023-06-09 19:27:00,2023-06-09 19:41:00,840,119,119
WalkerDelta_19,Ground station 1,67,2023-06-09 19:30:00,2023-06-09 19:49:00,1140,119,119
WalkerDelta_12,Ground station 1,68,2023-06-09 19:48:00,2023-06-09 20:06:00,1080,119,119
WalkerDelta_15,Ground station 1,67,2023-06-09 19:55:00,2023-06-09 20:09:00,840,119,119
WalkerDelta_18,Ground station 1,67,2023-06-09 19:58:00,2023-06-09 20:17:00,1140,119,119
WalkerDelta_11,Ground station 1,68,2023-06-09 20:16:00,2023-06-09 20:33:00,1020,119,119
WalkerDelta_14,Ground station 1,68,2023-06-09 20:24:00,2023-06-09 20:38:00,840,119,119
WalkerDelta_17,Ground station 1,68,2023-06-09 20:26:00,2023-06-09 20:45:00,1140,119,120
WalkerDelta_13,Ground station 1,68,2023-06-09 20:53:00,2023-06-09 21:08:00,900,120,120
WalkerDelta_20,Ground station 1,68,2023-06-09 20:54:00,2023-06-09 21:13:00,1140,120,120
WalkerDelta_16,Ground station 1,68,2023-06-09 21:21:00,2023-06-09 21:37:00,960,120,120
WalkerDelta_19,Ground station 1,68,2023-06-09 21:23:00,2023-06-09 21:41:00,1080,120,120
WalkerDelta_12,Ground station 1,69,2023-06-09 21:43:00,2023-06-09 21:52:00,540,120,120
WalkerDelta_15,Ground station 1,68,2023-06-09 21:49:00,2023-06-09 22:06:00,1020,120,120
WalkerDelta_18,Ground station 1,68,2023-06-09 21:51:00,2023-06-09 22:09:00,1080,120,120
WalkerDelta_14,Ground station 1,69,2023-06-09 22:17:00,2023-06-09 22:34:00,1020,120,121
WalkerDelta_17,Ground station 1,69,2023-06-09 22:20:00,2023-06-09 22:37:00,1020,120,121
WalkerDelta_13,Ground station 1,69,2023-06-09 22:45:00,2023-06-09 23:03:00,1080,121,121
WalkerDelta_20,Ground station 1,69,2023-06-09 22:49:00,2023-06-09 23:05:00,960,121,121
WalkerDelta_16,Ground station 1,69,2023-06-09 23:13:00,2023-06-09 23:32:00,1140,121,121
WalkerDelta_19,Ground station 1,69,2023-06-09 23:18:00,2023-06-09 23:33:00,900,121,121
WalkerDelta_15,Ground station 1,69,2023-06-09 23:41:00,2023-06-10 00:00:00,1140,121,121
WalkerDelta_18,Ground station 1,69,2023-06-09 23:47:00,2023-06-10 00:02:00,900,121,121
WalkerDelta_14,Ground station 1,70,2023-06-10 00:09:00,2023-06-10 00:28:00,1140,121,122
WalkerDelta_17,Ground station 1,70,2023-06-10 00:16:00,2023-06-10 00:30:00,840,121,122
WalkerDelta_13,Ground station 1,70,2023-06-10 00:37:00,2023-06-10 00:55:00,1080,122,122
WalkerDelta_20,Ground station 1,70,2023-06-10 00:45:00,2023-06-10 00:59:00,840,122,122
WalkerDelta_16,Ground station 1,70,2023-06-10 01:06:00,2023-06-10 01:23:00,1020,122,122
WalkerDelta_19,Ground station 1,70,2023-06-10 01:14:00,2023-06-10 01:28:00,840,122,122
WalkerDelta_15,Ground station 1,70,2023-06-10 01:34:00,2023-06-10 01:50:00,960,122,122
WalkerDelta_18,Ground station 1,70,2023-06-10 01:42:00,2023-06-10 01:57:00,900,122,122
WalkerDelta_14,Ground station 1,71,2023-06-10 02:03:00,2023-06-10 02:16:00,780,122,123
WalkerDelta_17,Ground station 1,71,2023-06-10 02:11:00,2023-06-10 02:26:00,900,123,123
