orbit/20SA_15DAY_endtime_550+1100km.csv

Source,Target,IntervalNumber,StartTime,EndTime,Duration,StartOrbit,EndOrbit
WalkerDelta_14,Ground station 1,1,2023-06-01 00:00:00,2023-06-01 00:06:00,360,1,1
WalkerDelta_17,Ground station 1,1,2023-06-01 00:00:00,2023-06-01 00:08:00,480,1,1
WalkerDelta_1,Ground station 1,1,2023-06-01 00:03:00,2023-06-01 00:11:00,480,1,1
WalkerDelta_13,Ground station 1,1,2023-06-01 00:16:00,2023-06-01 00:34:00,1080,1,1
WalkerDelta_20,Ground station 1,1,2023-06-01 00:22:00,2023-06-01 00:36:00,840,1,1
WalkerDelta_4,Ground station 1,1,2023-06-01 00:27:00,2023-06-01 00:37:00,600,1,1
WalkerDelta_16,Ground station 1,1,2023-06-01 00:44:00,2023-06-01 01:02:00,1080,1,1
WalkerDelta_3,Ground station 1,1,2023-06-01 00:51:00,2023-06-01 01:02:00,660,1,1
WalkerDelta_19,Ground station 1,1,2023-06-01 00:51:00,2023-06-01 01:05:00,840,1,1
WalkerDelta_2,Ground station 1,1,2023-06-01 01:16:00,2023-06-01 01:27:00,660,1,1
WalkerDelta_15,Ground station 1,1,2023-06-01 01:12:00,2023-06-01 01:30:00,1080,1,1
WalkerDelta_18,Ground station 1,1,2023-06-01 01:20:00,2023-06-01 01:34:00,840,1,1
WalkerDelta_1,Ground station 1,2,2023-06-01 01:40:00,2023-06-01 01:52:00,720,2,2
WalkerDelta_14,Ground station 1,2,2023-06-01 01:40:00,2023-06-01 01:57:00,1020,1,2
WalkerDelta_17,Ground station 1,2,2023-06-01 01:49:00,2023-06-01 02:03:00,840,2,2
WalkerDelta_4,Ground station 1,2,2023-06-01 02:05:00,2023-06-01 02:17:00,720,2,2
WalkerDelta_13,Ground station 1,2,2023-06-01 02:09:00,2023-06-01 02:24:00,900,2,2
WalkerDelta_20,Ground station 1,2,2023-06-01 02:17:00,2023-06-01 02:32:00,900,2,2
WalkerDelta_3,Ground station 1,2,2023-06-01 02:31:00,2023-06-01 02:42:00,660,2,2
WalkerDelta_16,Ground station 1,2,2023-06-01 02:38:00,2023-06-01 02:51:00,780,2,2
WalkerDelta_19,Ground station 1,2,2023-06-01 02:45:00,2023-06-01 03:01:00,960,2,2
WalkerDelta_2,Ground station 1,2,2023-06-01 02:56:00,2023-06-01 03:07:00,660,2,2
WalkerDelta_15,Ground station 1,2,2023-06-01 03:07:00,2023-06-01 03:17:00,600,2,2
WalkerDelta_18,Ground station 1,2,2023-06-01 03:13:00,2023-06-01 03:30:00,1020,2,2
WalkerDelta_1,Ground station 1,3,2023-06-01 03:22:00,2023-06-01 03:31:00,540,3,3
WalkerDelta_4,Ground station 1,3,2023-06-01 03:47:00,2023-06-01 03:56:00,540,3,3
WalkerDelta_17,Ground station 1,3,2023-06-01 03:41:00,2023-06-01 03:59:00,1080,3,3
WalkerDelta_3,Ground station 1,3,2023-06-01 04:13:00,2023-06-01 04:21:00,480,3,3
WalkerDelta_6,Ground station 1,1,2023-06-01 04:23:00,2023-06-01 04:26:00,180,3,3
WalkerDelta_20,Ground station 1,3,2023-06-01 04:09:00,2023-06-01 04:28:00,1140,3,3
WalkerDelta_2,Ground station 1,3,2023-06-01 04:39:00,2023-06-01 04:45:00,360,3,3
WalkerDelta_5,Ground station 1,1,2023-06-01 04:46:00,2023-06-01 04:53:00,420,3,4
WalkerDelta_19,Ground station 1,3,2023-06-01 04:37:00,2023-06-01 04:56:00,1140,3,3
WalkerDelta_1,Ground station 1,4,2023-06-01 05:05:00,2023-06-01 05:10:00,300,4,4
WalkerDelta_8,Ground station 1,1,2023-06-01 05:09:00,2023-06-01 05:19:00,600,4,4
WalkerDelta_18,Ground station 1,3,2023-06-01 05:05:00,2023-06-01 05:24:00,1140,3,4
WalkerDelta_4,Ground station 1,4,2023-06-01 05:31:00,2023-06-01 05:35:00,240,4,4
WalkerDelta_7,Ground station 1,1,2023-06-01 05:33:00,2023-06-01 05:44:00,660,4,4
WalkerDelta_17,Ground station 1,4,2023-06-01 05:34:00,2023-06-01 05:52:00,1080,4,4
WalkerDelta_3,Ground station 1,4,2023-06-01 05:57:00,2023-06-01 06:01:00,240,4,4
WalkerDelta_6,Ground station 1,2,2023-06-01 05:58:00,2023-06-01 06:09:00,660,4,4
WalkerDelta_20,Ground station 1,4,2023-06-01 06:02:00,2023-06-01 06:20:00,1080,4,4
WalkerDelta_2,Ground station 1,4,2023-06-01 06:22:00,2023-06-01 06:26:00,240,4,5
WalkerDelta_5,Ground station 1,2,2023-06-01 06:22:00,2023-06-01 06:34:00,720,4,5
WalkerDelta_19,Ground station 1,4,2023-06-01 06:30:00,2023-06-01 06:47:00,1020,4,4
WalkerDelta_1,Ground station 1,5,2023-06-01 06:47:00,2023-06-01 06:52:00,300,5,5
WalkerDelta_8,Ground station 1,2,2023-06-01 06:47:00,2023-06-01 06:59:00,720,5,5
WalkerDelta_18,Ground station 1,4,2023-06-01 06:59:00,2023-06-01 07:14:00,900,4,5
WalkerDelta_4,Ground station 1,5,2023-06-01 07:12:00,2023-06-01 07:18:00,360,5,5
WalkerDelta_7,Ground station 1,2,2023-06-01 07:13:00,2023-06-01 07:24:00,660,5,5
WalkerDelta_17,Ground station 1,5,2023-06-01 07:28:00,2023-06-01 07:40:00,720,5,5
WalkerDelta_3,Ground station 1,5,2023-06-01 07:37:00,2023-06-01 07:44:00,420,5,5
WalkerDelta_6,Ground station 1,3,2023-06-01 07:38:00,2023-06-01 07:49:00,660,5,5
WalkerDelta_20,Ground station 1,5,2023-06-01 07:57:00,2023-06-01 08:06:00,540,5,5
WalkerDelta_2,Ground station 1,5,2023-06-01 08:01:00,2023-06-01 08:10:00,540,6,6
WalkerDelta_5,Ground station 1,3,2023-06-01 08:03:00,2023-06-01 08:13:00,600,6,6
WalkerDelta_1,Ground station 1,6,2023-06-01 08:26:00,2023-06-01 08:36:00,600,6,6
WalkerDelta_8,Ground station 1,3,2023-06-01 08:29:00,2023-06-01 08:38:00,540,6,6
WalkerDelta_4,Ground station 1,6,2023-06-01 08:51:00,2023-06-01 09:02:00,660,6,6
WalkerDelta_7,Ground station 1,3,2023-06-01 08:55:00,2023-06-01 09:03:00,480,6,6
WalkerDelta_12,Ground station 1,1,2023-06-01 09:13:00,2023-06-01 09:27:00,840,6,6
WalkerDelta_3,Ground station 1,6,2023-06-01 09:16:00,2023-06-01 09:27:00,660,6,6
WalkerDelta_6,Ground station 1,4,2023-06-01 09:21:00,2023-06-01 09:27:00,360,6,6
WalkerDelta_9,Ground station 1,1,2023-06-01 09:28:00,2023-06-01 09:35:00,420,6,7
WalkerDelta_2,Ground station 1,6,2023-06-01 09:40:00,2023-06-01 09:52:00,720,7,7
WalkerDelta_5,Ground station 1,4,2023-06-01 09:47:00,2023-06-01 09:52:00,300,7,7
WalkerDelta_11,Ground station 1,1,2023-06-01 09:40:00,2023-06-01 09:56:00,960,6,6
WalkerDelta_1,Ground station 1,7,2023-06-01 10:05:00,2023-06-01 10:17:00,720,7,7
WalkerDelta_8,Ground station 1,4,2023-06-01 10:13:00,2023-06-01 10:17:00,240,7,7
WalkerDelta_4,Ground station 1,7,2023-06-01 10:30:00,2023-06-01 10:42:00,720,7,7
WalkerDelta_7,Ground station 1,4,2023-06-01 10:39:00,2023-06-01 10:42:00,180,7,7
WalkerDelta_10,Ground station 1,1,2023-06-01 10:40:00,2023-06-01 10:51:00,660,7,7
WalkerDelta_3,Ground station 1,7,2023-06-01 10:55:00,2023-06-01 11:06:00,660,7,7
WalkerDelta_6,Ground station 1,5,2023-06-01 11:04:00,2023-06-01 11:08:00,240,7,7
WalkerDelta_9,Ground station 1,2,2023-06-01 11:04:00,2023-06-01 11:16:00,720,7,8
WalkerDelta_12,Ground station 1,2,2023-06-01 11:02:00,2023-06-01 11:21:00,1140,7,7
WalkerDelta_2,Ground station 1,7,2023-06-01 11:21:00,2023-06-01 11:30:00,540,8,8
WalkerDelta_5,Ground station 1,5,2023-06-01 11:29:00,2023-06-01 11:34:00,300,8,8
WalkerDelta_11,Ground station 1,2,2023-06-01 11:30:00,2023-06-01 11:49:00,1140,7,7
WalkerDelta_1,Ground station 1,8,2023-06-01 11:46:00,2023-06-01 11:54:00,480,8,8
WalkerDelta_8,Ground station 1,5,2023-06-01 11:54:00,2023-06-01 12:00:00,360,8,8
WalkerDelta_4,Ground station 1,8,2023-06-01 12:13:00,2023-06-01 12:16:00,180,8,8
WalkerDelta_7,Ground station 1,5,2023-06-01 12:19:00,2023-06-01 12:26:00,420,8,8
WalkerDelta_10,Ground station 1,2,2023-06-01 12:20:00,2023-06-01 12:31:00,660,8,8
WalkerDelta_6,Ground station 1,6,2023-06-01 12:43:00,2023-06-01 12:52:00,540,8,9
WalkerDelta_9,Ground station 1,3,2023-06-01 12:45:00,2023-06-01 12:55:00,600,8,9
WalkerDelta_12,Ground station 1,3,2023-06-01 12:56:00,2023-06-01 13:13:00,1020,8,8
WalkerDelta_15,Ground station 1,3,2023-06-01 13:12:00,2023-06-01 13:17:00,300,8,8
WalkerDelta_5,Ground station 1,6,2023-06-01 13:08:00,2023-06-01 13:18:00,600,9,9
WalkerDelta_11,Ground station 1,3,2023-06-01 13:24:00,2023-06-01 13:41:00,1020,8,8
WalkerDelta_8,Ground station 1,6,2023-06-01 13:33:00,2023-06-01 13:43:00,600,9,9
WalkerDelta_14,Ground station 1,3,2023-06-01 13:36:00,2023-06-01 13:48:00,720,8,8
WalkerDelta_10,Ground station 1,3,2023-06-01 14:03:00,2023-06-01 14:09:00,360,9,9
WalkerDelta_7,Ground station 1,6,2023-06-01 13:58:00,2023-06-01 14:09:00,660,9,9
WalkerDelta_13,Ground station 1,3,2023-06-01 14:03:00,2023-06-01 14:17:00,840,8,8
WalkerDelta_6,Ground station 1,7,2023-06-01 14:22:00,2023-06-01 14:34:00,720,10,10
WalkerDelta_9,Ground station 1,4,2023-06-01 14:29:00,2023-06-01 14:34:00,300,10,10
WalkerDelta_16,Ground station 1,3,2023-06-01 14:29:00,2023-06-01 14:46:00,1020,9,9
WalkerDelta_5,Ground station 1,7,2023-06-01 14:47:00,2023-06-01 14:59:00,720,10,10
WalkerDelta_12,Ground station 1,4,2023-06-01 14:52:00,2023-06-01 15:06:00,840,9,9
WalkerDelta_15,Ground station 1,4,2023-06-01 14:56:00,2023-06-01 15:14:00,1080,9,9
WalkerDelta_8,Ground station 1,7,2023-06-01 15:12:00,2023-06-01 15:24:00,720,10,10
WalkerDelta_11,Ground station 1,4,2023-06-01 15:21:00,2023-06-01 15:35:00,840,9,9
WalkerDelta_14,Ground station 1,4,2023-06-01 15:24:00,2023-06-01 15:42:00,1080,9,9
WalkerDelta_7,Ground station 1,7,2023-06-01 15:37:00,2023-06-01 15:48:00,660,10,10
WalkerDelta_10,Ground station 1,4,2023-06-01 15:46:00,2023-06-01 15:50:00,240,10,10
WalkerDelta_13,Ground station 1,4,2023-06-01 15:52:00,2023-06-01 16:10:00,1080,9,10
WalkerDelta_6,Ground station 1,8,2023-06-01 16:02:00,2023-06-01 16:12:00,600,11,11
WalkerDelta_9,Ground station 1,5,2023-06-01 16:11:00,2023-06-01 16:16:00,300,11,11
WalkerDelta_5,Ground station 1,8,2023-06-01 16:28:00,2023-06-01 16:36:00,480,11,11
WalkerDelta_16,Ground station 1,4,2023-06-01 16:20:00,2023-06-01 16:38:00,1080,10,10
WalkerDelta_8,Ground station 1,8,2023-06-01 16:54:00,2023-06-01 16:59:00,300,11,11
WalkerDelta_12,Ground station 1,5,2023-06-01 16:46:00,2023-06-01 17:02:00,960,10,10
WalkerDelta_15,Ground station 1,5,2023-06-01 16:48:00,2023-06-01 17:06:00,1080,10,10
WalkerDelta_11,Ground station 1,5,2023-06-01 17:14:00,2023-06-01 17:31:00,1020,10,10
WalkerDelta_10,Ground station 1,5,2023-06-01 17:25:00,2023-06-01 17:34:00,540,11,12
WalkerDelta_14,Ground station 1,5,2023-06-01 17:17:00,2023-06-01 17:34:00,1020,10,10
WalkerDelta_9,Ground station 1,6,2023-06-01 17:50:00,2023-06-01 18:00:00,600,12,12
WalkerDelta_13,Ground station 1,5,2023-06-01 17:45:00,2023-06-01 18:02:00,1020,10,11
WalkerDelta_20,Ground station 1,6,2023-06-01 18:01:00,2023-06-01 18:07:00,360,11,11
WalkerDelta_16,Ground station 1,5,2023-06-01 18:14:00,2023-06-01 18:31:00,1020,11,11
WalkerDelta_19,Ground station 1,5,2023-06-01 18:26:00,2023-06-01 18:37:00,660,11,11
WalkerDelta_12,Ground station 1,6,2023-06-01 18:39:00,2023-06-01 18:57:00,1080,11,11
WalkerDelta_15,Ground station 1,6,2023-06-01 18:43:00,2023-06-01 18:59:00,960,11,11
WalkerDelta_18,Ground station 1,5,2023-06-01 18:52:00,2023-06-01 19:07:00,900,11,11
WalkerDelta_10,Ground station 1,6,2023-06-01 19:04:00,2023-06-01 19:16:00,720,12,13
WalkerDelta_11,Ground station 1,6,2023-06-01 19:07:00,2023-06-01 19:25:00,1080,11,11
WalkerDelta_14,Ground station 1,6,2023-06-01 19:12:00,2023-06-01 19:27:00,900,11,11
WalkerDelta_17,Ground station 1,6,2023-06-01 19:19:00,2023-06-01 19:35:00,960,11,11
WalkerDelta_9,Ground station 1,7,2023-06-01 19:29:00,2023-06-01 19:41:00,720,13,13
WalkerDelta_13,Ground station 1,6,2023-06-01 19:41:00,2023-06-01 19:56:00,900,12,12
WalkerDelta_20,Ground station 1,7,2023-06-01 19:46:00,2023-06-01 20:04:00,1080,12,12
WalkerDelta_16,Ground station 1,6,2023-06-01 20:10:00,2023-06-01 20:24:00,840,12,12
WalkerDelta_19,Ground station 1,6,2023-06-01 20:14:00,2023-06-01 20:32:00,1080,12,12
WalkerDelta_12,Ground station 1,7,2023-06-01 20:31:00,2023-06-01 20:49:00,1080,12,12
WalkerDelta_15,Ground station 1,7,2023-06-01 20:39:00,2023-06-01 20:53:00,840,12,12
WalkerDelta_10,Ground station 1,7,2023-06-01 20:44:00,2023-06-01 20:55:00,660,14,14
WalkerDelta_18,Ground station 1,6,2023-06-01 20:41:00,2023-06-01 21:00:00,1140,12,12
WalkerDelta_11,Ground station 1,7,2023-06-01 20:59:00,2023-06-01 21:16:00,1020,12,12
WalkerDelta_9,Ground station 1,8,2023-06-01 21:10:00,2023-06-01 21:18:00,480,14,14
WalkerDelta_14,Ground station 1,7,2023-06-01 21:08:00,2023-06-01 21:22:00,840,12,12
WalkerDelta_17,Ground station 1,7,2023-06-01 21:09:00,2023-06-01 21:28:00,1140,12,13
WalkerDelta_13,Ground station 1,7,2023-06-01 21:36:00,2023-06-01 21:51:00,900,13,13
WalkerDelta_20,Ground station 1,8,2023-06-01 21:38:00,2023-06-01 21:56:00,1080,13,13
WalkerDelta_16,Ground station 1,7,2023-06-01 22:04:00,2023-06-01 22:20:00,960,13,13
WalkerDelta_19,Ground station 1,7,2023-06-01 22:06:00,2023-06-01 22:24:00,1080,13,13
WalkerDelta_12,Ground station 1,8,2023-06-01 22:27:00,2023-06-01 22:34:00,420,13,13
WalkerDelta_15,Ground station 1,8,2023-06-01 22:32:00,2023-06-01 22:49:00,1020,13,13
WalkerDelta_18,Ground station 1,7,2023-06-01 22:35:00,2023-06-01 22:52:00,1020,13,13
WalkerDelta_14,Ground station 1,8,2023-06-01 23:00:00,2023-06-01 23:18:00,1080,13,14
WalkerDelta_17,Ground station 1,8,2023-06-01 23:04:00,2023-06-01 23:20:00,960,13,14
WalkerDelta_2,Ground station 1,8,2023-06-01 23:35:00,2023-06-01 23:39:00,240,15,15
WalkerDelta_13,Ground station 1,8,2023-06-01 23:28:00,2023-06-01 23:47:00,1140,14,14
WalkerDelta_20,Ground station 1,9,2023-06-01 23:33:00,2023-06-01 23:48:00,900,14,14
WalkerDelta_1,Ground station 1,9,2023-06-01 23:58:00,2023-06-02 00:06:00,480,16,16
WalkerDelta_16,Ground station 1,8,2023-06-01 23:56:00,2023-06-02 00:15:00,1140,14,14
WalkerDelta_19,Ground station 1,8,2023-06-02 00:02:00,2023-06-02 00:17:00,900,14,14
WalkerDelta_4,Ground station 1,9,2023-06-02 00:22:00,2023-06-02 00:32:00,600,16,16
WalkerDelta_15,Ground station 1,9,2023-06-02 00:24:00,2023-06-02 00:43:00,1140,14,14
WalkerDelta_18,Ground station 1,8,2023-06-02 00:31:00,2023-06-02 00:45:00,840,14,14
WalkerDelta_3,Ground station 1,8,2023-06-02 00:46:00,2023-06-02 00:57:00,660,16,16
WalkerDelta_14,Ground station 1,9,2023-06-02 00:52:00,2023-06-02 01:11:00,1140,14,15
WalkerDelta_17,Ground station 1,9,2023-06-02 01:00:00,2023-06-02 01:14:00,840,14,15
WalkerDelta_2,Ground station 1,9,2023-06-02 01:10:00,2023-06-02 01:22:00,720,16,16
WalkerDelta_13,Ground station 1,9,2023-06-02 01:21:00,2023-06-02 01:38:00,1020,15,15
WalkerDelta_20,Ground station 1,10,2023-06-02 01:29:00,2023-06-02 01:43:00,840,15,15
WalkerDelta_1,Ground station 1,10,2023-06-02 01:35:00,2023-06-02 01:47:00,720,17,17
WalkerDelta_16,Ground station 1,9,2023-06-02 01:49:00,2023-06-02 02:06:00,1020,15,15
WalkerDelta_19,Ground station 1,9,2023-06-02 01:57:00,2023-06-02 02:12:00,900,15,15
WalkerDelta_4,Ground station 1,10,2023-06-02 02:00:00,2023-06-02 02:12:00,720,17,17
WalkerDelta_15,Ground station 1,10,2023-06-02 02:18:00,2023-06-02 02:32:00,840,15,15
WalkerDelta_3,Ground station 1,9,2023-06-02 02:25:00,2023-06-02 02:37:00,720,17,17
WalkerDelta_18,Ground station 1,9,2023-06-02 02:26:00,2023-06-02 02:41:00,900,15,15
WalkerDelta_14,Ground station 1,10,2023-06-02 02:47:00,2023-06-02 02:59:00,720,15,16
WalkerDelta_2,Ground station 1,10,2023-06-02 02:51:00,2023-06-02 03:01:00,600,17,17
WalkerDelta_17,Ground station 1,10,2023-06-02 02:54:00,2023-06-02 03:10:00,960,16,16
WalkerDelta_13,Ground station 1,10,2023-06-02 03:17:00,2023-06-02 03:23:00,360,16,16
WalkerDelta_1,Ground station 1,11,2023-06-02 03:16:00,2023-06-02 03:26:00,600,18,18
WalkerDelta_20,Ground station 1,11,2023-06-02 03:22:00,2023-06-02 03:39:00,1020,16,16
WalkerDelta_4,Ground station 1,11,2023-06-02 03:42:00,2023-06-02 03:51:00,540,18,18
WalkerDelta_19,Ground station 1,10,2023-06-02 03:50:00,2023-06-02 04:08:00,1080,16,16
WalkerDelta_3,Ground station 1,10,2023-06-02 04:08:00,2023-06-02 04:15:00,420,18,18
WalkerDelta_6,Ground station 1,9,2023-06-02 04:18:00,2023-06-02 04:21:00,180,18,18
WalkerDelta_18,Ground station 1,10,2023-06-02 04:18:00,2023-06-02 04:36:00,1080,16,16
WalkerDelta_2,Ground station 1,11,2023-06-02 04:34:00,2023-06-02 04:40:00,360,18,18
WalkerDelta_5,Ground station 1,9,2023-06-02 04:40:00,2023-06-02 04:48:00,480,18,19
WalkerDelta_1,Ground station 1,12,2023-06-02 05:00:00,2023-06-02 05:05:00,300,19,19
WalkerDelta_17,Ground station 1,11,2023-06-02 04:46:00,2023-06-02 05:05:00,1140,17,17
WalkerDelta_8,Ground station 1,9,2023-06-02 05:04:00,2023-06-02 05:13:00,540,19,19
WalkerDelta_4,Ground station 1,12,2023-06-02 05:26:00,2023-06-02 05:30:00,240,19,19
WalkerDelta_20,Ground station 1,12,2023-06-02 05:14:00,2023-06-02 05:33:00,1140,17,17
WalkerDelta_7,Ground station 1,8,2023-06-02 05:28:00,2023-06-02 05:39:00,660,19,19
WalkerDelta_3,Ground station 1,11,2023-06-02 05:52:00,2023-06-02 05:55:00,180,19,19
WalkerDelta_19,Ground station 1,11,2023-06-02 05:42:00,2023-06-02 06:01:00,1140,17,17
WalkerDelta_6,Ground station 1,10,2023-06-02 05:53:00,2023-06-02 06:04:00,660,19,19
WalkerDelta_2,Ground station 1,12,2023-06-02 06:17:00,2023-06-02 06:21:00,240,19,20
WalkerDelta_18,Ground station 1,11,2023-06-02 06:10:00,2023-06-02 06:28:00,1080,17,18
WalkerDelta_5,Ground station 1,10,2023-06-02 06:17:00,2023-06-02 06:29:00,720,19,20
WalkerDelta_1,Ground station 1,13,2023-06-02 06:42:00,2023-06-02 06:47:00,300,20,20
WalkerDelta_8,Ground station 1,10,2023-06-02 06:42:00,2023-06-02 06:54:00,720,20,20
WalkerDelta_17,Ground station 1,12,2023-06-02 06:39:00,2023-06-02 06:55:00,960,18,18
WalkerDelta_4,Ground station 1,13,2023-06-02 07:07:00,2023-06-02 07:13:00,360,20,20
WalkerDelta_7,Ground station 1,9,2023-06-02 07:07:00,2023-06-02 07:19:00,720,20,20
WalkerDelta_20,Ground station 1,13,2023-06-02 07:08:00,2023-06-02 07:22:00,840,18,18
WalkerDelta_3,Ground station 1,12,2023-06-02 07:31:00,2023-06-02 07:39:00,480,20,20
WalkerDelta_6,Ground station 1,11,2023-06-02 07:33:00,2023-06-02 07:43:00,600,20,20
WalkerDelta_19,Ground station 1,12,2023-06-02 07:37:00,2023-06-02 07:48:00,660,18,18
WalkerDelta_2,Ground station 1,13,2023-06-02 07:56:00,2023-06-02 08:05:00,540,21,21
WalkerDelta_5,Ground station 1,11,2023-06-02 07:58:00,2023-06-02 08:08:00,600,21,21
WalkerDelta_18,Ground station 1,12,2023-06-02 08:08:00,2023-06-02 08:12:00,240,18,19
WalkerDelta_1,Ground station 1,14,2023-06-02 08:21:00,2023-06-02 08:31:00,600,21,21
WalkerDelta_8,Ground station 1,11,2023-06-02 08:24:00,2023-06-02 08:33:00,540,21,21
WalkerDelta_12,Ground station 1,9,2023-06-02 08:29:00,2023-06-02 08:37:00,480,19,19
WalkerDelta_4,Ground station 1,14,2023-06-02 08:46:00,2023-06-02 08:56:00,600,21,21
WalkerDelta_7,Ground station 1,10,2023-06-02 08:50:00,2023-06-02 08:57:00,420,21,21
WalkerDelta_11,Ground station 1,8,2023-06-02 08:55:00,2023-06-02 09:07:00,720,19,19
WalkerDelta_3,Ground station 1,13,2023-06-02 09:10:00,2023-06-02 09:22:00,720,21,21
WalkerDelta_6,Ground station 1,12,2023-06-02 09:16:00,2023-06-02 09:22:00,360,21,21
WalkerDelta_9,Ground station 1,9,2023-06-02 09:23:00,2023-06-02 09:29:00,360,21,22
WalkerDelta_2,Ground station 1,14,2023-06-02 09:35:00,2023-06-02 09:47:00,720,22,22
WalkerDelta_5,Ground station 1,12,2023-06-02 09:42:00,2023-06-02 09:47:00,300,22,22
WalkerDelta_1,Ground station 1,15,2023-06-02 10:00:00,2023-06-02 10:12:00,720,22,22
WalkerDelta_8,Ground station 1,12,2023-06-02 10:08:00,2023-06-02 10:12:00,240,22,22
WalkerDelta_12,Ground station 1,10,2023-06-02 10:15:00,2023-06-02 10:33:00,1080,20,20
WalkerDelta_4,Ground station 1,15,2023-06-02 10:25:00,2023-06-02 10:36:00,660,22,22
WalkerDelta_7,Ground station 1,11,2023-06-02 10:33:00,2023-06-02 10:37:00,240,22,22
WalkerDelta_10,Ground station 1,8,2023-06-02 10:35:00,2023-06-02 10:46:00,660,22,22
WalkerDelta_11,Ground station 1,9,2023-06-02 10:43:00,2023-06-02 11:01:00,1080,20,20
WalkerDelta_3,Ground station 1,14,2023-06-02 10:50:00,2023-06-02 11:01:00,660,22,22
WalkerDelta_6,Ground station 1,13,2023-06-02 10:59:00,2023-06-02 11:03:00,240,22,22
WalkerDelta_9,Ground station 1,10,2023-06-02 10:59:00,2023-06-02 11:11:00,720,22,23
WalkerDelta_2,Ground station 1,15,2023-06-02 11:15:00,2023-06-02 11:25:00,600,23,23
WalkerDelta_5,Ground station 1,13,2023-06-02 11:24:00,2023-06-02 11:29:00,300,23,23
WalkerDelta_1,Ground station 1,16,2023-06-02 11:41:00,2023-06-02 11:49:00,480,23,23
WalkerDelta_8,Ground station 1,13,2023-06-02 11:49:00,2023-06-02 11:55:00,360,23,23
WalkerDelta_4,Ground station 1,16,2023-06-02 12:07:00,2023-06-02 12:11:00,240,23,23
WalkerDelta_7,Ground station 1,12,2023-06-02 12:13:00,2023-06-02 12:21:00,480,23,23
WalkerDelta_10,Ground station 1,9,2023-06-02 12:14:00,2023-06-02 12:25:00,660,23,23
WalkerDelta_12,Ground station 1,11,2023-06-02 12:07:00,2023-06-02 12:25:00,1080,21,21
WalkerDelta_6,Ground station 1,14,2023-06-02 12:38:00,2023-06-02 12:47:00,540,23,24
WalkerDelta_9,Ground station 1,11,2023-06-02 12:40:00,2023-06-02 12:50:00,600,24,24
WalkerDelta_11,Ground station 1,10,2023-06-02 12:36:00,2023-06-02 12:53:00,1020,21,21
WalkerDelta_5,Ground station 1,14,2023-06-02 13:03:00,2023-06-02 13:12:00,540,24,24
WalkerDelta_13,Ground station 1,11,2023-06-02 13:19:00,2023-06-02 13:27:00,480,21,21
WalkerDelta_8,Ground station 1,14,2023-06-02 13:28:00,2023-06-02 13:38:00,600,24,24
WalkerDelta_16,Ground station 1,10,2023-06-02 13:44:00,2023-06-02 13:57:00,780,22,22
WalkerDelta_7,Ground station 1,13,2023-06-02 13:52:00,2023-06-02 14:03:00,660,24,24
WalkerDelta_10,Ground station 1,10,2023-06-02 13:57:00,2023-06-02 14:04:00,420,24,24
WalkerDelta_12,Ground station 1,12,2023-06-02 14:02:00,2023-06-02 14:18:00,960,22,22
WalkerDelta_15,Ground station 1,11,2023-06-02 14:10:00,2023-06-02 14:26:00,960,22,22
WalkerDelta_6,Ground station 1,15,2023-06-02 14:17:00,2023-06-02 14:29:00,720,25,25
WalkerDelta_9,Ground station 1,12,2023-06-02 14:23:00,2023-06-02 14:29:00,360,25,25
WalkerDelta_11,Ground station 1,11,2023-06-02 14:32:00,2023-06-02 14:46:00,840,22,22
WalkerDelta_14,Ground station 1,11,2023-06-02 14:37:00,2023-06-02 14:54:00,1020,22,22
WalkerDelta_5,Ground station 1,15,2023-06-02 14:42:00,2023-06-02 14:54:00,720,25,25
WalkerDelta_8,Ground station 1,15,2023-06-02 15:07:00,2023-06-02 15:18:00,660,25,25
WalkerDelta_13,Ground station 1,12,2023-06-02 15:05:00,2023-06-02 15:23:00,1080,22,23
WalkerDelta_7,Ground station 1,14,2023-06-02 15:32:00,2023-06-02 15:43:00,660,25,25
WalkerDelta_10,Ground station 1,11,2023-06-02 15:41:00,2023-06-02 15:44:00,180,25,25
WalkerDelta_16,Ground station 1,11,2023-06-02 15:32:00,2023-06-02 15:51:00,1140,23,23
WalkerDelta_6,Ground station 1,16,2023-06-02 15:57:00,2023-06-02 16:07:00,600,26,26
WalkerDelta_9,Ground station 1,13,2023-06-02 16:06:00,2023-06-02 16:10:00,240,26,26
WalkerDelta_12,Ground station 1,13,2023-06-02 15:58:00,2023-06-02 16:12:00,840,23,23
WalkerDelta_15,Ground station 1,12,2023-06-02 16:00:00,2023-06-02 16:19:00,1140,23,23
WalkerDelta_5,Ground station 1,16,2023-06-02 16:23:00,2023-06-02 16:31:00,480,26,26
WalkerDelta_11,Ground station 1,12,2023-06-02 16:27:00,2023-06-02 16:42:00,900,23,23
WalkerDelta_14,Ground station 1,12,2023-06-02 16:28:00,2023-06-02 16:47:00,1140,23,23
WalkerDelta_8,Ground station 1,16,2023-06-02 16:49:00,2023-06-02 16:54:00,300,26,26
WalkerDelta_13,Ground station 1,13,2023-06-02 16:57:00,2023-06-02 17:15:00,1080,23,24
WalkerDelta_10,Ground station 1,12,2023-06-02 17:20:00,2023-06-02 17:28:00,480,26,27
WalkerDelta_16,Ground station 1,12,2023-06-02 17:25:00,2023-06-02 17:43:00,1080,24,24
WalkerDelta_9,Ground station 1,14,2023-06-02 17:45:00,2023-06-02 17:54:00,540,27,27
WalkerDelta_12,Ground station 1,14,2023-06-02 17:51:00,2023-06-02 18:09:00,1080,24,24
WalkerDelta_15,Ground station 1,13,2023-06-02 17:54:00,2023-06-02 18:11:00,1020,24,24
WalkerDelta_18,Ground station 1,13,2023-06-02 18:08:00,2023-06-02 18:17:00,540,24,24
WalkerDelta_11,Ground station 1,13,2023-06-02 18:19:00,2023-06-02 18:37:00,1080,24,24
WalkerDelta_14,Ground station 1,13,2023-06-02 18:23:00,2023-06-02 18:39:00,960,24,24
WalkerDelta_17,Ground station 1,13,2023-06-02 18:34:00,2023-06-02 18:47:00,780,24,24
WalkerDelta_13,Ground station 1,14,2023-06-02 18:52:00,2023-06-02 19:07:00,900,24,25
WalkerDelta_10,Ground station 1,13,2023-06-02 18:59:00,2023-06-02 19:11:00,720,27,28
WalkerDelta_20,Ground station 1,14,2023-06-02 19:00:00,2023-06-02 19:16:00,960,25,25
WalkerDelta_16,Ground station 1,13,2023-06-02 19:21:00,2023-06-02 19:36:00,900,25,25
WalkerDelta_9,Ground station 1,15,2023-06-02 19:24:00,2023-06-02 19:36:00,720,28,28
WalkerDelta_19,Ground station 1,13,2023-06-02 19:27:00,2023-06-02 19:44:00,1020,25,25
WalkerDelta_12,Ground station 1,15,2023-06-02 19:43:00,2023-06-02 20:02:00,1140,25,25
WalkerDelta_15,Ground station 1,14,2023-06-02 19:50:00,2023-06-02 20:04:00,840,25,25
WalkerDelta_18,Ground station 1,14,2023-06-02 19:54:00,2023-06-02 20:12:00,1080,25,25
WalkerDelta_11,Ground station 1,14,2023-06-02 20:11:00,2023-06-02 20:30:00,1140,25,25
WalkerDelta_14,Ground station 1,14,2023-06-02 20:19:00,2023-06-02 20:33:00,840,25,25
WalkerDelta_17,Ground station 1,14,2023-06-02 20:22:00,2023-06-02 20:41:00,1140,25,25
WalkerDelta_10,Ground station 1,14,2023-06-02 20:39:00,2023-06-02 20:49:00,600,29,29
WalkerDelta_13,Ground station 1,15,2023-06-02 20:48:00,2023-06-02 21:02:00,840,26,26
WalkerDelta_20,Ground station 1,15,2023-06-02 20:50:00,2023-06-02 21:09:00,1140,26,26
WalkerDelta_9,Ground station 1,16,2023-06-02 21:04:00,2023-06-02 21:13:00,540,29,29
WalkerDelta_16,Ground station 1,14,2023-06-02 21:16:00,2023-06-02 21:31:00,900,26,26
WalkerDelta_19,Ground station 1,14,2023-06-02 21:18:00,2023-06-02 21:37:00,1140,26,26
WalkerDelta_12,Ground station 1,16,2023-06-02 21:37:00,2023-06-02 21:51:00,840,26,26
WalkerDelta_15,Ground station 1,15,2023-06-02 21:45:00,2023-06-02 22:00:00,900,26,26
WalkerDelta_18,Ground station 1,15,2023-06-02 21:47:00,2023-06-02 22:05:00,1080,26,26
WalkerDelta_11,Ground station 1,15,2023-06-02 22:07:00,2023-06-02 22:17:00,600,26,26
WalkerDelta_14,Ground station 1,15,2023-06-02 22:13:00,2023-06-02 22:29:00,960,26,27
WalkerDelta_17,Ground station 1,15,2023-06-02 22:15:00,2023-06-02 22:33:00,1080,26,27
WalkerDelta_13,Ground station 1,16,2023-06-02 22:41:00,2023-06-02 22:58:00,1020,27,27
WalkerDelta_20,Ground station 1,16,2023-06-02 22:44:00,2023-06-02 23:01:00,1020,27,27
WalkerDelta_16,Ground station 1,15,2023-06-02 23:09:00,2023-06-02 23:27:00,1080,27,27
WalkerDelta_19,Ground station 1,15,2023-06-02 23:13:00,2023-06-02 23:29:00,960,27,27
WalkerDelta_2,Ground station 1,16,2023-06-02 23:30:00,2023-06-02 23:34:00,240,30,30
WalkerDelta_15,Ground station 1,16,2023-06-02 23:37:00,2023-06-02 23:55:00,1080,27,27
WalkerDelta_18,Ground station 1,16,2023-06-02 23:42:00,2023-06-02 23:57:00,900,27,27
WalkerDelta_1,Ground station 1,17,2023-06-02 23:53:00,2023-06-03 00:01:00,480,31,31
WalkerDelta_14,Ground station 1,16,2023-06-03 00:05:00,2023-06-03 00:24:00,1140,27,28
WalkerDelta_17,Ground station 1,16,2023-06-03 00:11:00,2023-06-03 00:26:00,900,27,28
WalkerDelta_4,Ground station 1,17,2023-06-03 00:17:00,2023-06-03 00:26:00,540,31,31
WalkerDelta_13,Ground station 1,17,2023-06-03 00:33:00,2023-06-03 00:52:00,1140,28,28
WalkerDelta_3,Ground station 1,15,2023-06-03 00:41:00,2023-06-03 00:52:00,660,31,31
WalkerDelta_20,Ground station 1,17,2023-06-03 00:40:00,2023-06-03 00:54:00,840,28,28
WalkerDelta_2,Ground station 1,17,2023-06-03 01:05:00,2023-06-03 01:17:00,720,31,31
WalkerDelta_16,Ground station 1,16,2023-06-03 01:01:00,2023-06-03 01:19:00,1080,28,28
WalkerDelta_19,Ground station 1,16,2023-06-03 01:09:00,2023-06-03 01:23:00,840,28,28
WalkerDelta_1,Ground station 1,18,2023-06-03 01:30:00,2023-06-03 01:42:00,720,32,32
WalkerDelta_15,Ground station 1,17,2023-06-03 01:29:00,2023-06-03 01:47:00,1080,28,28
WalkerDelta_18,Ground station 1,17,2023-06-03 01:38:00,2023-06-03 01:52:00,840,28,28
WalkerDelta_4,Ground station 1,18,2023-06-03 01:55:00,2023-06-03 02:06:00,660,32,32
WalkerDelta_14,Ground station 1,17,2023-06-03 01:58:00,2023-06-03 02:14:00,960,28,29
WalkerDelta_17,Ground station 1,17,2023-06-03 02:06:00,2023-06-03 02:21:00,900,29,29
WalkerDelta_3,Ground station 1,16,2023-06-03 02:20:00,2023-06-03 02:31:00,660,32,32
WalkerDelta_13,Ground station 1,18,2023-06-03 02:27:00,2023-06-03 02:40:00,780,29,29
WalkerDelta_20,Ground station 1,18,2023-06-03 02:34:00,2023-06-03 02:50:00,960,29,29
WalkerDelta_2,Ground station 1,18,2023-06-03 02:45:00,2023-06-03 02:56:00,660,32,32
WalkerDelta_16,Ground station 1,17,2023-06-03 02:56:00,2023-06-03 03:06:00,600,29,29
WalkerDelta_19,Ground station 1,17,2023-06-03 03:03:00,2023-06-03 03:19:00,960,29,29
WalkerDelta_1,Ground station 1,19,2023-06-03 03:11:00,2023-06-03 03:21:00,600,33,33
WalkerDelta_4,Ground station 1,19,2023-06-03 03:37:00,2023-06-03 03:45:00,480,33,33
WalkerDelta_18,Ground station 1,18,2023-06-03 03:31:00,2023-06-03 03:48:00,1020,29,29
WalkerDelta_3,Ground station 1,17,2023-06-03 04:03:00,2023-06-03 04:10:00,420,33,33
WalkerDelta_6,Ground station 1,17,2023-06-03 04:13:00,2023-06-03 04:15:00,120,33,33
WalkerDelta_17,Ground station 1,18,2023-06-03 03:59:00,2023-06-03 04:17:00,1080,30,30
WalkerDelta_2,Ground station 1,19,2023-06-03 04:29:00,2023-06-03 04:35:00,360,33,33
WalkerDelta_5,Ground station 1,17,2023-06-03 04:35:00,2023-06-03 04:42:00,420,33,34
WalkerDelta_20,Ground station 1,19,2023-06-03 04:27:00,2023-06-03 04:45:00,1080,30,30
WalkerDelta_1,Ground station 1,20,2023-06-03 04:55:00,2023-06-03 05:00:00,300,34,34
WalkerDelta_8,Ground station 1,17,2023-06-03 04:59:00,2023-06-03 05:08:00,540,34,34
WalkerDelta_19,Ground station 1,18,2023-06-03 04:55:00,2023-06-03 05:13:00,1080,30,30
WalkerDelta_4,Ground station 1,20,2023-06-03 05:21:00,2023-06-03 05:25:00,240,34,34
WalkerDelta_7,Ground station 1,15,2023-06-03 05:23:00,2023-06-03 05:33:00,600,34,34
WalkerDelta_18,Ground station 1,19,2023-06-03 05:23:00,2023-06-03 05:41:00,1080,30,31
WalkerDelta_3,Ground station 1,18,2023-06-03 05:46:00,2023-06-03 05:50:00,240,34,34
WalkerDelta_6,Ground station 1,18,2023-06-03 05:47:00,2023-06-03 05:59:00,720,34,34
WalkerDelta_17,Ground station 1,19,2023-06-03 05:51:00,2023-06-03 06:09:00,1080,31,31
WalkerDelta_2,Ground station 1,20,2023-06-03 06:12:00,2023-06-03 06:16:00,240,34,35
WalkerDelta_5,Ground station 1,18,2023-06-03 06:12:00,2023-06-03 06:24:00,720,34,35
WalkerDelta_20,Ground station 1,20,2023-06-03 06:19:00,2023-06-03 06:36:00,1020,31,31
WalkerDelta_1,Ground station 1,21,2023-06-03 06:37:00,2023-06-03 06:42:00,300,35,35
WalkerDelta_8,Ground station 1,18,2023-06-03 06:37:00,2023-06-03 06:48:00,660,35,35
WalkerDelta_19,Ground station 1,19,2023-06-03 06:48:00,2023-06-03 07:03:00,900,31,31
WalkerDelta_4,Ground station 1,21,2023-06-03 07:01:00,2023-06-03 07:08:00,420,35,35
WalkerDelta_7,Ground station 1,16,2023-06-03 07:02:00,2023-06-03 07:13:00,660,35,35
WalkerDelta_18,Ground station 1,20,2023-06-03 07:17:00,2023-06-03 07:30:00,780,31,32
WalkerDelta_3,Ground station 1,19,2023-06-03 07:26:00,2023-06-03 07:34:00,480,35,35
WalkerDelta_6,Ground station 1,19,2023-06-03 07:27:00,2023-06-03 07:38:00,660,35,35
WalkerDelta_17,Ground station 1,20,2023-06-03 07:46:00,2023-06-03 07:55:00,540,32,32
WalkerDelta_2,Ground station 1,21,2023-06-03 07:51:00,2023-06-03 08:00:00,540,36,36
WalkerDelta_5,Ground station 1,19,2023-06-03 07:53:00,2023-06-03 08:03:00,600,36,36
WalkerDelta_1,Ground station 1,22,2023-06-03 08:16:00,2023-06-03 08:25:00,540,36,36
WalkerDelta_8,Ground station 1,19,2023-06-03 08:18:00,2023-06-03 08:27:00,540,36,36
WalkerDelta_4,Ground station 1,22,2023-06-03 08:40:00,2023-06-03 08:51:00,660,36,36
WalkerDelta_7,Ground station 1,17,2023-06-03 08:44:00,2023-06-03 08:52:00,480,36,36
WalkerDelta_3,Ground station 1,20,2023-06-03 09:05:00,2023-06-03 09:16:00,660,36,36
WalkerDelta_6,Ground station 1,20,2023-06-03 09:10:00,2023-06-03 09:17:00,420,36,36
WalkerDelta_9,Ground station 1,17,2023-06-03 09:18:00,2023-06-03 09:24:00,360,36,37
WalkerDelta_2,Ground station 1,22,2023-06-03 09:30:00,2023-06-03 09:41:00,660,37,37
WalkerDelta_5,Ground station 1,20,2023-06-03 09:36:00,2023-06-03 09:42:00,360,37,37
WalkerDelta_12,Ground station 1,17,2023-06-03 09:29:00,2023-06-03 09:45:00,960,33,33
WalkerDelta_1,Ground station 1,23,2023-06-03 09:55:00,2023-06-03 10:06:00,660,37,37
WalkerDelta_8,Ground station 1,20,2023-06-03 10:02:00,2023-06-03 10:07:00,300,37,37
WalkerDelta_11,Ground station 1,16,2023-06-03 09:56:00,2023-06-03 10:13:00,1020,33,33
WalkerDelta_4,Ground station 1,23,2023-06-03 10:20:00,2023-06-03 10:31:00,660,37,37
WalkerDelta_7,Ground station 1,18,2023-06-03 10:28:00,2023-06-03 10:32:00,240,37,37
WalkerDelta_10,Ground station 1,15,2023-06-03 10:29:00,2023-06-03 10:41:00,720,37,37
WalkerDelta_3,Ground station 1,21,2023-06-03 10:45:00,2023-06-03 10:56:00,660,37,37
WalkerDelta_6,Ground station 1,21,2023-06-03 10:53:00,2023-06-03 10:57:00,240,37,37
WalkerDelta_9,Ground station 1,18,2023-06-03 10:54:00,2023-06-03 11:06:00,720,37,38
WalkerDelta_2,Ground station 1,23,2023-06-03 11:10:00,2023-06-03 11:20:00,600,38,38
WalkerDelta_5,Ground station 1,21,2023-06-03 11:19:00,2023-06-03 11:23:00,240,38,38
WalkerDelta_12,Ground station 1,18,2023-06-03 11:19:00,2023-06-03 11:38:00,1140,34,34
WalkerDelta_1,Ground station 1,24,2023-06-03 11:36:00,2023-06-03 11:43:00,420,38,38
WalkerDelta_8,Ground station 1,21,2023-06-03 11:43:00,2023-06-03 11:49:00,360,38,38
WalkerDelta_11,Ground station 1,17,2023-06-03 11:47:00,2023-06-03 12:06:00,1140,34,34
WalkerDelta_4,Ground station 1,24,2023-06-03 12:02:00,2023-06-03 12:06:00,240,38,38
WalkerDelta_7,Ground station 1,19,2023-06-03 12:08:00,2023-06-03 12:15:00,420,38,38
WalkerDelta_10,Ground station 1,16,2023-06-03 12:09:00,2023-06-03 12:20:00,660,38,38
WalkerDelta_6,Ground station 1,22,2023-06-03 12:33:00,2023-06-03 12:41:00,480,38,39
WalkerDelta_9,Ground station 1,19,2023-06-03 12:35:00,2023-06-03 12:45:00,600,39,39
WalkerDelta_16,Ground station 1,18,2023-06-03 13:02:00,2023-06-03 13:05:00,180,35,35
WalkerDelta_5,Ground station 1,22,2023-06-03 12:58:00,2023-06-03 13:07:00,540,39,39
WalkerDelta_12,Ground station 1,19,2023-06-03 13:13:00,2023-06-03 13:30:00,1020,35,35
WalkerDelta_8,Ground station 1,22,2023-06-03 13:22:00,2023-06-03 13:33:00,660,39,39
WalkerDelta_15,Ground station 1,18,2023-06-03 13:26:00,2023-06-03 13:37:00,660,35,35
WalkerDelta_11,Ground station 1,18,2023-06-03 13:42:00,2023-06-03 13:58:00,960,35,35
WalkerDelta_7,Ground station 1,20,2023-06-03 13:47:00,2023-06-03 13:58:00,660,39,39
WalkerDelta_10,Ground station 1,17,2023-06-03 13:52:00,2023-06-03 13:59:00,420,39,39
WalkerDelta_14,Ground station 1,18,2023-06-03 13:52:00,2023-06-03 14:06:00,840,35,35
WalkerDelta_6,Ground station 1,23,2023-06-03 14:12:00,2023-06-03 14:23:00,660,40,40
WalkerDelta_9,Ground station 1,20,2023-06-03 14:18:00,2023-06-03 14:24:00,360,40,40
WalkerDelta_13,Ground station 1,19,2023-06-03 14:19:00,2023-06-03 14:35:00,960,35,36
WalkerDelta_5,Ground station 1,23,2023-06-03 14:37:00,2023-06-03 14:48:00,660,40,40
WalkerDelta_16,Ground station 1,19,2023-06-03 14:46:00,2023-06-03 15:03:00,1020,36,36
WalkerDelta_8,Ground station 1,23,2023-06-03 15:01:00,2023-06-03 15:13:00,720,40,40
WalkerDelta_12,Ground station 1,20,2023-06-03 15:10:00,2023-06-03 15:24:00,840,36,36
WalkerDelta_15,Ground station 1,19,2023-06-03 15:13:00,2023-06-03 15:31:00,1080,36,36
WalkerDelta_7,Ground station 1,21,2023-06-03 15:27:00,2023-06-03 15:38:00,660,40,40
WalkerDelta_10,Ground station 1,18,2023-06-03 15:35:00,2023-06-03 15:39:00,240,40,40
WalkerDelta_11,Ground station 1,19,2023-06-03 15:38:00,2023-06-03 15:53:00,900,36,36
WalkerDelta_14,Ground station 1,19,2023-06-03 15:41:00,2023-06-03 16:00:00,1140,36,36
WalkerDelta_6,Ground station 1,24,2023-06-03 15:52:00,2023-06-03 16:02:00,600,41,41
WalkerDelta_9,Ground station 1,21,2023-06-03 16:01:00,2023-06-03 16:05:00,240,41,41
WalkerDelta_5,Ground station 1,24,2023-06-03 16:17:00,2023-06-03 16:26:00,540,41,41
WalkerDelta_13,Ground station 1,20,2023-06-03 16:09:00,2023-06-03 16:28:00,1140,36,37
WalkerDelta_8,Ground station 1,24,2023-06-03 16:43:00,2023-06-03 16:49:00,360,41,41
WalkerDelta_16,Ground station 1,20,2023-06-03 16:37:00,2023-06-03 16:56:00,1140,37,37
WalkerDelta_12,Ground station 1,21,2023-06-03 17:04:00,2023-06-03 17:20:00,960,37,37
WalkerDelta_10,Ground station 1,19,2023-06-03 17:15:00,2023-06-03 17:23:00,480,41,42
WalkerDelta_15,Ground station 1,20,2023-06-03 17:06:00,2023-06-03 17:24:00,1080,37,37
WalkerDelta_11,Ground station 1,20,2023-06-03 17:32:00,2023-06-03 17:49:00,1020,37,37
WalkerDelta_9,Ground station 1,22,2023-06-03 17:40:00,2023-06-03 17:49:00,540,42,42
WalkerDelta_14,Ground station 1,20,2023-06-03 17:34:00,2023-06-03 17:52:00,1080,37,37
WalkerDelta_17,Ground station 1,21,2023-06-03 17:51:00,2023-06-03 17:55:00,240,37,37
WalkerDelta_13,Ground station 1,21,2023-06-03 18:03:00,2023-06-03 18:20:00,1020,37,38
WalkerDelta_20,Ground station 1,21,2023-06-03 18:15:00,2023-06-03 18:26:00,660,38,38
WalkerDelta_16,Ground station 1,21,2023-06-03 18:32:00,2023-06-03 18:48:00,960,38,38
WalkerDelta_19,Ground station 1,20,2023-06-03 18:41:00,2023-06-03 18:56:00,900,38,38
WalkerDelta_10,Ground station 1,20,2023-06-03 18:54:00,2023-06-03 19:05:00,660,42,43
WalkerDelta_12,Ground station 1,22,2023-06-03 18:56:00,2023-06-03 19:14:00,1080,38,38
WalkerDelta_15,Ground station 1,21,2023-06-03 19:01:00,2023-06-03 19:16:00,900,38,38
WalkerDelta_18,Ground station 1,21,2023-06-03 19:08:00,2023-06-03 19:24:00,960,38,38
WalkerDelta_9,Ground station 1,23,2023-06-03 19:19:00,2023-06-03 19:30:00,660,43,43
WalkerDelta_11,Ground station 1,21,2023-06-03 19:24:00,2023-06-03 19:43:00,1140,38,38
WalkerDelta_14,Ground station 1,21,2023-06-03 19:30:00,2023-06-03 19:45:00,900,38,38
WalkerDelta_17,Ground station 1,22,2023-06-03 19:35:00,2023-06-03 19:53:00,1080,38,38
WalkerDelta_13,Ground station 1,22,2023-06-03 19:59:00,2023-06-03 20:13:00,840,39,39
WalkerDelta_20,Ground station 1,22,2023-06-03 20:03:00,2023-06-03 20:21:00,1080,39,39
WalkerDelta_16,Ground station 1,22,2023-06-03 20:28:00,2023-06-03 20:42:00,840,39,39
WalkerDelta_10,Ground station 1,21,2023-06-03 20:34:00,2023-06-03 20:44:00,600,44,44
WalkerDelta_19,Ground station 1,21,2023-06-03 20:31:00,2023-06-03 20:49:00,1080,39,39
WalkerDelta_12,Ground station 1,23,2023-06-03 20:48:00,2023-06-03 21:05:00,1020,39,39
WalkerDelta_9,Ground station 1,24,2023-06-03 20:59:00,2023-06-03 21:08:00,540,44,44
WalkerDelta_15,Ground station 1,22,2023-06-03 20:57:00,2023-06-03 21:11:00,840,39,39
WalkerDelta_18,Ground station 1,22,2023-06-03 20:59:00,2023-06-03 21:17:00,1080,39,39
WalkerDelta_11,Ground station 1,22,2023-06-03 21:17:00,2023-06-03 21:32:00,900,39,39
WalkerDelta_14,Ground station 1,22,2023-06-03 21:25:00,2023-06-03 21:40:00,900,39,39
WalkerDelta_17,Ground station 1,23,2023-06-03 21:27:00,2023-06-03 21:45:00,1080,39,40
WalkerDelta_13,Ground station 1,23,2023-06-03 21:53:00,2023-06-03 22:09:00,960,40,40
WalkerDelta_20,Ground station 1,23,2023-06-03 21:55:00,2023-06-03 22:13:00,1080,40,40
WalkerDelta_16,Ground station 1,23,2023-06-03 22:21:00,2023-06-03 22:38:00,1020,40,40
WalkerDelta_19,Ground station 1,22,2023-06-03 22:24:00,2023-06-03 22:41:00,1020,40,40
WalkerDelta_15,Ground station 1,23,2023-06-03 22:50:00,2023-06-03 23:07:00,1020,40,40
WalkerDelta_18,Ground station 1,23,2023-06-03 22:53:00,2023-06-03 23:09:00,960,40,40
WalkerDelta_2,Ground station 1,24,2023-06-03 23:25:00,2023-06-03 23:29:00,240,45,45
WalkerDelta_14,Ground station 1,23,2023-06-03 23:18:00,2023-06-03 23:36:00,1080,40,41
WalkerDelta_17,Ground station 1,24,2023-06-03 23:22:00,2023-06-03 23:38:00,960,40,41
WalkerDelta_1,Ground station 1,25,2023-06-03 23:48:00,2023-06-03 23:55:00,420,46,46
WalkerDelta_13,Ground station 1,24,2023-06-03 23:46:00,2023-06-04 00:04:00,1080,41,41
WalkerDelta_20,Ground station 1,24,2023-06-03 23:51:00,2023-06-04 00:06:00,900,41,41
WalkerDelta_4,Ground station 1,25,2023-06-04 00:11:00,2023-06-04 00:21:00,600,46,46
WalkerDelta_16,Ground station 1,24,2023-06-04 00:14:00,2023-06-04 00:32:00,1080,41,41
WalkerDelta_19,Ground station 1,23,2023-06-04 00:20:00,2023-06-04 00:34:00,840,41,41
WalkerDelta_3,Ground station 1,22,2023-06-04 00:35:00,2023-06-04 00:46:00,660,46,46
WalkerDelta_15,Ground station 1,24,2023-06-04 00:42:00,2023-06-04 01:00:00,1080,41,41
WalkerDelta_18,Ground station 1,24,2023-06-04 00:49:00,2023-06-04 01:03:00,840,41,41
WalkerDelta_2,Ground station 1,25,2023-06-04 01:00:00,2023-06-04 01:11:00,660,46,46
WalkerDelta_14,Ground station 1,24,2023-06-04 01:10:00,2023-06-04 01:28:00,1080,41,42
WalkerDelta_17,Ground station 1,25,2023-06-04 01:18:00,2023-06-04 01:32:00,840,42,42
WalkerDelta_1,Ground station 1,26,2023-06-04 01:25:00,2023-06-04 01:36:00,660,47,47
WalkerDelta_13,Ground station 1,25,2023-06-04 01:38:00,2023-06-04 01:55:00,1020,42,42
WalkerDelta_20,Ground station 1,25,2023-06-04 01:47:00,2023-06-04 02:01:00,840,42,42
WalkerDelta_4,Ground station 1,26,2023-06-04 01:49:00,2023-06-04 02:01:00,720,47,47
WalkerDelta_16,Ground station 1,25,2023-06-04 02:07:00,2023-06-04 02:22:00,900,42,42
WalkerDelta_3,Ground station 1,23,2023-06-04 02:15:00,2023-06-04 02:26:00,660,47,47
WalkerDelta_19,Ground station 1,24,2023-06-04 02:15:00,2023-06-04 02:30:00,900,42,42
WalkerDelta_15,Ground station 1,25,2023-06-04 02:36:00,2023-06-04 02:48:00,720,42,42
WalkerDelta_2,Ground station 1,26,2023-06-04 02:40:00,2023-06-04 02:51:00,660,47,47
WalkerDelta_18,Ground station 1,25,2023-06-04 02:43:00,2023-06-04 02:59:00,960,42,42
WalkerDelta_14,Ground station 1,25,2023-06-04 03:06:00,2023-06-04 03:13:00,420,43,43
WalkerDelta_1,Ground station 1,27,2023-06-04 03:06:00,2023-06-04 03:15:00,540,48,48
WalkerDelta_17,Ground station 1,26,2023-06-04 03:11:00,2023-06-04 03:28:00,1020,43,43
WalkerDelta_4,Ground station 1,27,2023-06-04 03:31:00,2023-06-04 03:40:00,540,48,48
WalkerDelta_20,Ground station 1,26,2023-06-04 03:39:00,2023-06-04 03:57:00,1080,43,43
WalkerDelta_3,Ground station 1,24,2023-06-04 03:57:00,2023-06-04 04:05:00,480,48,48
WalkerDelta_6,Ground station 1,25,2023-06-04 04:08:00,2023-06-04 04:09:00,60,48,48
WalkerDelta_19,Ground station 1,25,2023-06-04 04:07:00,2023-06-04 04:25:00,1080,43,43
WalkerDelta_2,Ground station 1,27,2023-06-04 04:23:00,2023-06-04 04:29:00,360,48,48
WalkerDelta_5,Ground station 1,25,2023-06-04 04:30:00,2023-06-04 04:37:00,420,48,49
WalkerDelta_1,Ground station 1,28,2023-06-04 04:49:00,2023-06-04 04:54:00,300,49,49
WalkerDelta_18,Ground station 1,26,2023-06-04 04:35:00,2023-06-04 04:54:00,1140,43,44
WalkerDelta_8,Ground station 1,25,2023-06-04 04:54:00,2023-06-04 05:03:00,540,49,49
WalkerDelta_4,Ground station 1,28,2023-06-04 05:15:00,2023-06-04 05:19:00,240,49,49
WalkerDelta_17,Ground station 1,27,2023-06-04 05:03:00,2023-06-04 05:22:00,1140,44,44
WalkerDelta_7,Ground station 1,22,2023-06-04 05:18:00,2023-06-04 05:28:00,600,49,49
WalkerDelta_3,Ground station 1,25,2023-06-04 05:41:00,2023-06-04 05:45:00,240,49,49
WalkerDelta_20,Ground station 1,27,2023-06-04 05:31:00,2023-06-04 05:50:00,1140,44,44
WalkerDelta_6,Ground station 1,26,2023-06-04 05:42:00,2023-06-04 05:53:00,660,49,49
WalkerDelta_2,Ground station 1,28,2023-06-04 06:06:00,2023-06-04 06:10:00,240,49,50
WalkerDelta_19,Ground station 1,26,2023-06-04 06:00:00,2023-06-04 06:17:00,1020,44,44
WalkerDelta_5,Ground station 1,26,2023-06-04 06:07:00,2023-06-04 06:18:00,660,50,50
WalkerDelta_1,Ground station 1,29,2023-06-04 06:31:00,2023-06-04 06:36:00,300,50,50
WalkerDelta_8,Ground station 1,26,2023-06-04 06:31:00,2023-06-04 06:43:00,720,50,50
WalkerDelta_18,Ground station 1,27,2023-06-04 06:28:00,2023-06-04 06:44:00,960,44,45
WalkerDelta_4,Ground station 1,29,2023-06-04 06:56:00,2023-06-04 07:02:00,360,50,50
WalkerDelta_7,Ground station 1,23,2023-06-04 06:57:00,2023-06-04 07:08:00,660,50,50
WalkerDelta_17,Ground station 1,28,2023-06-04 06:57:00,2023-06-04 07:11:00,840,45,45
WalkerDelta_3,Ground station 1,26,2023-06-04 07:21:00,2023-06-04 07:28:00,420,50,50
WalkerDelta_6,Ground station 1,27,2023-06-04 07:22:00,2023-06-04 07:33:00,660,50,50
WalkerDelta_20,Ground station 1,28,2023-06-04 07:26:00,2023-06-04 07:37:00,660,45,45
WalkerDelta_2,Ground station 1,29,2023-06-04 07:46:00,2023-06-04 07:54:00,480,51,51
WalkerDelta_5,Ground station 1,27,2023-06-04 07:47:00,2023-06-04 07:57:00,600,51,51
WalkerDelta_19,Ground station 1,27,2023-06-04 07:56:00,2023-06-04 08:02:00,360,45,45
WalkerDelta_1,Ground station 1,30,2023-06-04 08:10:00,2023-06-04 08:20:00,600,51,51
WalkerDelta_8,Ground station 1,27,2023-06-04 08:13:00,2023-06-04 08:22:00,540,51,51
WalkerDelta_4,Ground station 1,30,2023-06-04 08:35:00,2023-06-04 08:45:00,600,51,51
WalkerDelta_7,Ground station 1,24,2023-06-04 08:39:00,2023-06-04 08:47:00,480,51,51
WalkerDelta_12,Ground station 1,24,2023-06-04 08:44:00,2023-06-04 08:56:00,720,46,46
WalkerDelta_3,Ground station 1,27,2023-06-04 09:00:00,2023-06-04 09:11:00,660,51,51
WalkerDelta_6,Ground station 1,28,2023-06-04 09:05:00,2023-06-04 09:12:00,420,51,51
WalkerDelta_9,Ground station 1,25,2023-06-04 09:12:00,2023-06-04 09:19:00,420,51,52
WalkerDelta_11,Ground station 1,23,2023-06-04 09:10:00,2023-06-04 09:25:00,900,46,46
WalkerDelta_2,Ground station 1,30,2023-06-04 09:24:00,2023-06-04 09:36:00,720,52,52
WalkerDelta_5,Ground station 1,28,2023-06-04 09:31:00,2023-06-04 09:36:00,300,52,52
WalkerDelta_1,Ground station 1,31,2023-06-04 09:49:00,2023-06-04 10:01:00,720,52,52
WalkerDelta_8,Ground station 1,28,2023-06-04 09:57:00,2023-06-04 10:01:00,240,52,52
WalkerDelta_4,Ground station 1,31,2023-06-04 10:14:00,2023-06-04 10:26:00,720,52,52
WalkerDelta_7,Ground station 1,25,2023-06-04 10:23:00,2023-06-04 10:26:00,180,52,52
WalkerDelta_10,Ground station 1,22,2023-06-04 10:24:00,2023-06-04 10:35:00,660,52,52
WalkerDelta_12,Ground station 1,25,2023-06-04 10:32:00,2023-06-04 10:50:00,1080,47,47
WalkerDelta_3,Ground station 1,28,2023-06-04 10:39:00,2023-06-04 10:50:00,660,52,52
WalkerDelta_6,Ground station 1,29,2023-06-04 10:48:00,2023-06-04 10:52:00,240,52,52
WalkerDelta_9,Ground station 1,26,2023-06-04 10:49:00,2023-06-04 11:00:00,660,52,53
WalkerDelta_2,Ground station 1,31,2023-06-04 11:05:00,2023-06-04 11:14:00,540,53,53
WalkerDelta_11,Ground station 1,24,2023-06-04 11:00:00,2023-06-04 11:18:00,1080,47,47
WalkerDelta_5,Ground station 1,29,2023-06-04 11:13:00,2023-06-04 11:18:00,300,53,53
WalkerDelta_1,Ground station 1,32,2023-06-04 11:30:00,2023-06-04 11:38:00,480,53,53
WalkerDelta_8,Ground station 1,29,2023-06-04 11:38:00,2023-06-04 11:44:00,360,53,53
WalkerDelta_4,Ground station 1,32,2023-06-04 11:57:00,2023-06-04 12:01:00,240,53,53
WalkerDelta_7,Ground station 1,26,2023-06-04 12:03:00,2023-06-04 12:10:00,420,53,53
WalkerDelta_10,Ground station 1,23,2023-06-04 12:04:00,2023-06-04 12:15:00,660,53,53
WalkerDelta_6,Ground station 1,30,2023-06-04 12:28:00,2023-06-04 12:36:00,480,53,54
WalkerDelta_9,Ground station 1,27,2023-06-04 12:29:00,2023-06-04 12:39:00,600,53,54
WalkerDelta_12,Ground station 1,26,2023-06-04 12:25:00,2023-06-04 12:42:00,1020,48,48
WalkerDelta_5,Ground station 1,30,2023-06-04 12:52:00,2023-06-04 13:02:00,600,54,54
WalkerDelta_11,Ground station 1,25,2023-06-04 12:54:00,2023-06-04 13:10:00,960,48,48
WalkerDelta_14,Ground station 1,26,2023-06-04 13:08:00,2023-06-04 13:16:00,480,48,48
WalkerDelta_8,Ground station 1,30,2023-06-04 13:17:00,2023-06-04 13:27:00,600,54,54
WalkerDelta_13,Ground station 1,26,2023-06-04 13:33:00,2023-06-04 13:46:00,780,48,48
WalkerDelta_7,Ground station 1,27,2023-06-04 13:42:00,2023-06-04 13:53:00,660,54,54
WalkerDelta_10,Ground station 1,24,2023-06-04 13:47:00,2023-06-04 13:54:00,420,54,54
WalkerDelta_16,Ground station 1,26,2023-06-04 14:00:00,2023-06-04 14:15:00,900,49,49
WalkerDelta_6,Ground station 1,31,2023-06-04 14:06:00,2023-06-04 14:18:00,720,55,55
WalkerDelta_9,Ground station 1,28,2023-06-04 14:13:00,2023-06-04 14:18:00,300,55,55
WalkerDelta_12,Ground station 1,27,2023-06-04 14:21:00,2023-06-04 14:35:00,840,49,49
WalkerDelta_5,Ground station 1,31,2023-06-04 14:31:00,2023-06-04 14:43:00,720,55,55
WalkerDelta_15,Ground station 1,26,2023-06-04 14:27:00,2023-06-04 14:44:00,1020,49,49
WalkerDelta_11,Ground station 1,26,2023-06-04 14:50:00,2023-06-04 15:04:00,840,49,49
WalkerDelta_8,Ground station 1,31,2023-06-04 14:56:00,2023-06-04 15:08:00,720,55,55
WalkerDelta_14,Ground station 1,27,2023-06-04 14:54:00,2023-06-04 15:12:00,1080,49,49
WalkerDelta_7,Ground station 1,28,2023-06-04 15:21:00,2023-06-04 15:32:00,660,55,55
WalkerDelta_10,Ground station 1,25,2023-06-04 15:30:00,2023-06-04 15:34:00,240,55,55
WalkerDelta_13,Ground station 1,27,2023-06-04 15:22:00,2023-06-04 15:40:00,1080,49,50
WalkerDelta_6,Ground station 1,32,2023-06-04 15:46:00,2023-06-04 15:57:00,660,56,56
WalkerDelta_9,Ground station 1,29,2023-06-04 15:55:00,2023-06-04 16:00:00,300,56,56
WalkerDelta_16,Ground station 1,27,2023-06-04 15:49:00,2023-06-04 16:08:00,1140,50,50
WalkerDelta_5,Ground station 1,32,2023-06-04 16:12:00,2023-06-04 16:20:00,480,56,56
WalkerDelta_12,Ground station 1,28,2023-06-04 16:16:00,2023-06-04 16:31:00,900,50,50
WalkerDelta_15,Ground station 1,27,2023-06-04 16:18:00,2023-06-04 16:36:00,1080,50,50
WalkerDelta_8,Ground station 1,32,2023-06-04 16:38:00,2023-06-04 16:44:00,360,56,56
WalkerDelta_11,Ground station 1,27,2023-06-04 16:44:00,2023-06-04 17:00:00,960,50,50
WalkerDelta_14,Ground station 1,28,2023-06-04 16:46:00,2023-06-04 17:04:00,1080,50,50
WalkerDelta_10,Ground station 1,26,2023-06-04 17:10:00,2023-06-04 17:18:00,480,56,57
WalkerDelta_13,Ground station 1,28,2023-06-04 17:15:00,2023-06-04 17:32:00,1020,50,51
WalkerDelta_9,Ground station 1,30,2023-06-04 17:34:00,2023-06-04 17:44:00,600,57,57
WalkerDelta_16,Ground station 1,28,2023-06-04 17:43:00,2023-06-04 18:00:00,1020,51,51
WalkerDelta_19,Ground station 1,28,2023-06-04 17:58:00,2023-06-04 18:06:00,480,51,51
WalkerDelta_12,Ground station 1,29,2023-06-04 18:08:00,2023-06-04 18:26:00,1080,51,51
WalkerDelta_15,Ground station 1,28,2023-06-04 18:12:00,2023-06-04 18:28:00,960,51,51
WalkerDelta_18,Ground station 1,28,2023-06-04 18:23:00,2023-06-04 18:36:00,780,51,51
WalkerDelta_11,Ground station 1,28,2023-06-04 18:36:00,2023-06-04 18:55:00,1140,51,51
WalkerDelta_14,Ground station 1,29,2023-06-04 18:41:00,2023-06-04 18:57:00,960,51,51
WalkerDelta_10,Ground station 1,27,2023-06-04 18:48:00,2023-06-04 19:00:00,720,57,58
WalkerDelta_17,Ground station 1,29,2023-06-04 18:49:00,2023-06-04 19:05:00,960,51,51
WalkerDelta_13,Ground station 1,29,2023-06-04 19:10:00,2023-06-04 19:25:00,900,51,52
WalkerDelta_9,Ground station 1,31,2023-06-04 19:13:00,2023-06-04 19:25:00,720,58,58
WalkerDelta_20,Ground station 1,29,2023-06-04 19:16:00,2023-06-04 19:33:00,1020,52,52
WalkerDelta_16,Ground station 1,29,2023-06-04 19:39:00,2023-06-04 19:54:00,900,52,52
WalkerDelta_19,Ground station 1,29,2023-06-04 19:44:00,2023-06-04 20:02:00,1080,52,52
WalkerDelta_12,Ground station 1,30,2023-06-04 20:01:00,2023-06-04 20:19:00,1080,52,52
WalkerDelta_15,Ground station 1,29,2023-06-04 20:08:00,2023-06-04 20:22:00,840,52,52
WalkerDelta_18,Ground station 1,29,2023-06-04 20:11:00,2023-06-04 20:30:00,1140,52,52
WalkerDelta_10,Ground station 1,28,2023-06-04 20:28:00,2023-06-04 20:39:00,660,59,59
WalkerDelta_11,Ground station 1,29,2023-06-04 20:29:00,2023-06-04 20:46:00,1020,52,52
WalkerDelta_14,Ground station 1,30,2023-06-04 20:37:00,2023-06-04 20:51:00,840,52,52
WalkerDelta_17,Ground station 1,30,2023-06-04 20:39:00,2023-06-04 20:58:00,1140,52,53
WalkerDelta_9,Ground station 1,32,2023-06-04 20:54:00,2023-06-04 21:03:00,540,59,59
WalkerDelta_13,Ground station 1,30,2023-06-04 21:06:00,2023-06-04 21:20:00,840,53,53
WalkerDelta_20,Ground station 1,30,2023-06-04 21:07:00,2023-06-04 21:26:00,1140,53,53
WalkerDelta_16,Ground station 1,30,2023-06-04 21:34:00,2023-06-04 21:49:00,900,53,53
WalkerDelta_19,Ground station 1,30,2023-06-04 21:36:00,2023-06-04 21:54:00,1080,53,53
WalkerDelta_12,Ground station 1,31,2023-06-04 21:55:00,2023-06-04 22:06:00,660,53,53
WalkerDelta_15,Ground station 1,30,2023-06-04 22:02:00,2023-06-04 22:18:00,960,53,53
WalkerDelta_18,Ground station 1,30,2023-06-04 22:04:00,2023-06-04 22:22:00,1080,53,53
WalkerDelta_11,Ground station 1,30,2023-06-04 22:27:00,2023-06-04 22:30:00,180,53,53
WalkerDelta_14,Ground station 1,31,2023-06-04 22:30:00,2023-06-04 22:47:00,1020,53,54
WalkerDelta_17,Ground station 1,31,2023-06-04 22:33:00,2023-06-04 22:50:00,1020,53,54
WalkerDelta_13,Ground station 1,31,2023-06-04 22:58:00,2023-06-04 23:16:00,1080,54,54
WalkerDelta_20,Ground station 1,31,2023-06-04 23:02:00,2023-06-04 23:18:00,960,54,54
WalkerDelta_2,Ground station 1,32,2023-06-04 23:20:00,2023-06-04 23:23:00,180,60,60
WalkerDelta_16,Ground station 1,31,2023-06-04 23:26:00,2023-06-04 23:45:00,1140,54,54
WalkerDelta_19,Ground station 1,31,2023-06-04 23:31:00,2023-06-04 23:46:00,900,54,54
WalkerDelta_1,Ground station 1,33,2023-06-04 23:42:00,2023-06-04 23:50:00,480,61,61
WalkerDelta_15,Ground station 1,31,2023-06-04 23:54:00,2023-06-05 00:13:00,1140,54,54
WalkerDelta_18,Ground station 1,31,2023-06-05 00:00:00,2023-06-05 00:15:00,900,54,54
WalkerDelta_4,Ground station 1,33,2023-06-05 00:06:00,2023-06-05 00:16:00,600,61,61
WalkerDelta_14,Ground station 1,32,2023-06-05 00:22:00,2023-06-05 00:41:00,1140,54,55
WalkerDelta_3,Ground station 1,29,2023-06-05 00:30:00,2023-06-05 00:41:00,660,61,61
WalkerDelta_17,Ground station 1,32,2023-06-05 00:29:00,2023-06-05 00:43:00,840,54,55
WalkerDelta_2,Ground station 1,33,2023-06-05 00:55:00,2023-06-05 01:06:00,660,61,61
WalkerDelta_13,Ground station 1,32,2023-06-05 00:50:00,2023-06-05 01:08:00,1080,55,55
WalkerDelta_20,Ground station 1,32,2023-06-05 00:58:00,2023-06-05 01:12:00,840,55,55
WalkerDelta_1,Ground station 1,34,2023-06-05 01:19:00,2023-06-05 01:31:00,720,62,62
WalkerDelta_16,Ground station 1,32,2023-06-05 01:19:00,2023-06-05 01:36:00,1020,55,55
WalkerDelta_19,Ground station 1,32,2023-06-05 01:27:00,2023-06-05 01:41:00,840,55,55
WalkerDelta_4,Ground station 1,34,2023-06-05 01:44:00,2023-06-05 01:56:00,720,62,62
WalkerDelta_15,Ground station 1,32,2023-06-05 01:47:00,2023-06-05 02:03:00,960,55,55
WalkerDelta_18,Ground station 1,32,2023-06-05 01:55:00,2023-06-05 02:10:00,900,55,55
WalkerDelta_3,Ground station 1,30,2023-06-05 02:09:00,2023-06-05 02:21:00,720,62,62
WalkerDelta_14,Ground station 1,33,2023-06-05 02:16:00,2023-06-05 02:30:00,840,55,56
WalkerDelta_17,Ground station 1,33,2023-06-05 02:24:00,2023-06-05 02:39:00,900,56,56
WalkerDelta_2,Ground station 1,34,2023-06-05 02:35:00,2023-06-05 02:45:00,600,62,62
WalkerDelta_13,Ground station 1,33,2023-06-05 02:45:00,2023-06-05 02:56:00,660,56,56
WalkerDelta_20,Ground station 1,33,2023-06-05 02:52:00,2023-06-05 03:08:00,960,56,56
WalkerDelta_1,Ground station 1,35,2023-06-05 03:00:00,2023-06-05 03:10:00,600,63,63
WalkerDelta_4,Ground station 1,35,2023-06-05 03:26:00,2023-06-05 03:35:00,540,63,63
WalkerDelta_19,Ground station 1,33,2023-06-05 03:20:00,2023-06-05 03:37:00,1020,56,56
WalkerDelta_3,Ground station 1,31,2023-06-05 03:52:00,2023-06-05 03:59:00,420,63,63
WalkerDelta_18,Ground station 1,33,2023-06-05 03:48:00,2023-06-05 04:06:00,1080,56,56
WalkerDelta_2,Ground station 1,35,2023-06-05 04:18:00,2023-06-05 04:24:00,360,63,63
WalkerDelta_5,Ground station 1,33,2023-06-05 04:25:00,2023-06-05 04:32:00,420,63,64
WalkerDelta_17,Ground station 1,34,2023-06-05 04:16:00,2023-06-05 04:34:00,1080,57,57
WalkerDelta_1,Ground station 1,36,2023-06-05 04:44:00,2023-06-05 04:49:00,300,64,64
WalkerDelta_8,Ground station 1,33,2023-06-05 04:48:00,2023-06-05 04:57:00,540,64,64
WalkerDelta_20,Ground station 1,34,2023-06-05 04:44:00,2023-06-05 05:02:00,1080,57,57
WalkerDelta_4,Ground station 1,36,2023-06-05 05:10:00,2023-06-05 05:14:00,240,64,64
WalkerDelta_7,Ground station 1,29,2023-06-05 05:12:00,2023-06-05 05:23:00,660,64,64
WalkerDelta_19,Ground station 1,34,2023-06-05 05:12:00,2023-06-05 05:30:00,1080,57,57
WalkerDelta_3,Ground station 1,32,2023-06-05 05:36:00,2023-06-05 05:39:00,180,64,64
WalkerDelta_6,Ground station 1,33,2023-06-05 05:37:00,2023-06-05 05:48:00,660,64,64
WalkerDelta_18,Ground station 1,34,2023-06-05 05:40:00,2023-06-05 05:58:00,1080,57,58
WalkerDelta_2,Ground station 1,36,2023-06-05 06:01:00,2023-06-05 06:05:00,240,64,65
WalkerDelta_5,Ground station 1,34,2023-06-05 06:01:00,2023-06-05 06:13:00,720,64,65
WalkerDelta_17,Ground station 1,35,2023-06-05 06:08:00,2023-06-05 06:26:00,1080,58,58
WalkerDelta_1,Ground station 1,37,2023-06-05 06:26:00,2023-06-05 06:31:00,300,65,65
WalkerDelta_8,Ground station 1,34,2023-06-05 06:26:00,2023-06-05 06:38:00,720,65,65
WalkerDelta_20,Ground station 1,35,2023-06-05 06:37:00,2023-06-05 06:53:00,960,58,58
WalkerDelta_4,Ground station 1,37,2023-06-05 06:51:00,2023-06-05 06:57:00,360,65,65
WalkerDelta_7,Ground station 1,30,2023-06-05 06:51:00,2023-06-05 07:03:00,720,65,65
WalkerDelta_19,Ground station 1,35,2023-06-05 07:06:00,2023-06-05 07:19:00,780,58,58
WalkerDelta_3,Ground station 1,33,2023-06-05 07:16:00,2023-06-05 07:23:00,420,65,65
WalkerDelta_6,Ground station 1,34,2023-06-05 07:17:00,2023-06-05 07:27:00,600,65,65
WalkerDelta_18,Ground station 1,35,2023-06-05 07:35:00,2023-06-05 07:45:00,600,58,59
WalkerDelta_2,Ground station 1,37,2023-06-05 07:40:00,2023-06-05 07:49:00,540,66,66
WalkerDelta_5,Ground station 1,35,2023-06-05 07:42:00,2023-06-05 07:52:00,600,66,66
WalkerDelta_1,Ground station 1,38,2023-06-05 08:05:00,2023-06-05 08:15:00,600,66,66
WalkerDelta_8,Ground station 1,35,2023-06-05 08:08:00,2023-06-05 08:17:00,540,66,66
WalkerDelta_11,Ground station 1,31,2023-06-05 08:26:00,2023-06-05 08:36:00,600,59,59
WalkerDelta_4,Ground station 1,38,2023-06-05 08:30:00,2023-06-05 08:40:00,600,66,66
WalkerDelta_7,Ground station 1,31,2023-06-05 08:34:00,2023-06-05 08:42:00,480,66,66
WalkerDelta_3,Ground station 1,34,2023-06-05 08:54:00,2023-06-05 09:06:00,720,66,66
WalkerDelta_6,Ground station 1,35,2023-06-05 08:59:00,2023-06-05 09:06:00,420,66,66
WalkerDelta_9,Ground station 1,33,2023-06-05 09:07:00,2023-06-05 09:13:00,360,66,67
WalkerDelta_2,Ground station 1,38,2023-06-05 09:19:00,2023-06-05 09:31:00,720,67,67
WalkerDelta_5,Ground station 1,36,2023-06-05 09:26:00,2023-06-05 09:31:00,300,67,67
WalkerDelta_1,Ground station 1,39,2023-06-05 09:44:00,2023-06-05 09:56:00,720,67,67
WalkerDelta_8,Ground station 1,36,2023-06-05 09:52:00,2023-06-05 09:56:00,240,67,67
WalkerDelta_12,Ground station 1,32,2023-06-05 09:45:00,2023-06-05 10:03:00,1080,60,60
WalkerDelta_4,Ground station 1,39,2023-06-05 10:09:00,2023-06-05 10:20:00,660,67,67
WalkerDelta_7,Ground station 1,32,2023-06-05 10:17:00,2023-06-05 10:21:00,240,67,67
WalkerDelta_10,Ground station 1,29,2023-06-05 10:19:00,2023-06-05 10:30:00,660,67,67
WalkerDelta_11,Ground station 1,32,2023-06-05 10:13:00,2023-06-05 10:31:00,1080,60,60
WalkerDelta_3,Ground station 1,35,2023-06-05 10:34:00,2023-06-05 10:45:00,660,67,67
WalkerDelta_6,Ground station 1,36,2023-06-05 10:43:00,2023-06-05 10:47:00,240,67,67
WalkerDelta_9,Ground station 1,34,2023-06-05 10:43:00,2023-06-05 10:55:00,720,67,68
WalkerDelta_2,Ground station 1,39,2023-06-05 10:59:00,2023-06-05 11:09:00,600,68,68
WalkerDelta_5,Ground station 1,37,2023-06-05 11:08:00,2023-06-05 11:13:00,300,68,68
WalkerDelta_1,Ground station 1,40,2023-06-05 11:25:00,2023-06-05 11:33:00,480,68,68
WalkerDelta_8,Ground station 1,37,2023-06-05 11:33:00,2023-06-05 11:39:00,360,68,68
WalkerDelta_12,Ground station 1,33,2023-06-05 11:37:00,2023-06-05 11:55:00,1080,61,61
WalkerDelta_4,Ground station 1,40,2023-06-05 11:51:00,2023-06-05 11:56:00,300,68,68
WalkerDelta_7,Ground station 1,33,2023-06-05 11:58:00,2023-06-05 12:05:00,420,68,68
WalkerDelta_10,Ground station 1,30,2023-06-05 11:58:00,2023-06-05 12:09:00,660,68,68
WalkerDelta_11,Ground station 1,33,2023-06-05 12:05:00,2023-06-05 12:23:00,1080,61,61
WalkerDelta_6,Ground station 1,37,2023-06-05 12:22:00,2023-06-05 12:31:00,540,68,69
WalkerDelta_9,Ground station 1,35,2023-06-05 12:24:00,2023-06-05 12:34:00,600,68,69
WalkerDelta_5,Ground station 1,38,2023-06-05 12:47:00,2023-06-05 12:56:00,540,69,69
WalkerDelta_8,Ground station 1,38,2023-06-05 13:12:00,2023-06-05 13:22:00,600,69,69
WalkerDelta_16,Ground station 1,33,2023-06-05 13:15:00,2023-06-05 13:25:00,600,62,62
WalkerDelta_12,Ground station 1,34,2023-06-05 13:32:00,2023-06-05 13:47:00,900,62,62
WalkerDelta_7,Ground station 1,34,2023-06-05 13:36:00,2023-06-05 13:47:00,660,69,69
WalkerDelta_10,Ground station 1,31,2023-06-05 13:41:00,2023-06-05 13:48:00,420,69,69
WalkerDelta_15,Ground station 1,33,2023-06-05 13:41:00,2023-06-05 13:55:00,840,62,62
WalkerDelta_6,Ground station 1,38,2023-06-05 14:01:00,2023-06-05 14:13:00,720,70,70
WalkerDelta_9,Ground station 1,36,2023-06-05 14:07:00,2023-06-05 14:13:00,360,70,70
WalkerDelta_11,Ground station 1,34,2023-06-05 14:01:00,2023-06-05 14:16:00,900,62,62
WalkerDelta_14,Ground station 1,34,2023-06-05 14:08:00,2023-06-05 14:24:00,960,62,62
WalkerDelta_5,Ground station 1,39,2023-06-05 14:26:00,2023-06-05 14:38:00,720,70,70
