orbit/sort_start_intvls_SH_550km_5PLAN_40SAT_10days.csv

Source,Target,IntervalNumber,StartTime,EndTime,Duration,StartOrbit,EndOrbit
WDLeo_2,Ground station 1,1,2023-06-01 00:00:00,2023-06-01 00:01:00,60,1,1
WDLeo_34,Ground station 1,1,2023-06-01 00:00:00,2023-06-01 00:02:00,120,1,1
WDLeo_27,Ground station 1,1,2023-06-01 00:01:00,2023-06-01 00:12:00,660,1,1
WDLeo_1,Ground station 1,1,2023-06-01 00:03:00,2023-06-01 00:14:00,660,1,1
WDLeo_33,Ground station 1,1,2023-06-01 00:12:00,2023-06-01 00:15:00,180,1,1
WDLeo_26,Ground station 1,1,2023-06-01 00:13:00,2023-06-01 00:25:00,720,1,1
WDLeo_8,Ground station 1,1,2023-06-01 00:15:00,2023-06-01 00:27:00,720,1,1
WDLeo_40,Ground station 1,1,2023-06-01 00:24:00,2023-06-01 00:28:00,240,1,1
WDLeo_25,Ground station 1,1,2023-06-01 00:26:00,2023-06-01 00:37:00,660,1,1
WDLeo_7,Ground station 1,1,2023-06-01 00:28:00,2023-06-01 00:39:00,660,1,1
WDLeo_39,Ground station 1,1,2023-06-01 00:37:00,2023-06-01 00:40:00,180,1,1
WDLeo_32,Ground station 1,1,2023-06-01 00:38:00,2023-06-01 00:49:00,660,1,1
WDLeo_6,Ground station 1,1,2023-06-01 00:40:00,2023-06-01 00:52:00,720,1,1
WDLeo_38,Ground station 1,1,2023-06-01 00:50:00,2023-06-01 00:53:00,180,1,1
WDLeo_31,Ground station 1,1,2023-06-01 00:51:00,2023-06-01 01:01:00,600,1,1
WDLeo_5,Ground station 1,1,2023-06-01 00:52:00,2023-06-01 01:04:00,720,1,1
WDLeo_37,Ground station 1,1,2023-06-01 01:02:00,2023-06-01 01:06:00,240,1,1
WDLeo_30,Ground station 1,1,2023-06-01 01:03:00,2023-06-01 01:13:00,600,1,1
WDLeo_4,Ground station 1,1,2023-06-01 01:05:00,2023-06-01 01:17:00,720,1,1
WDLeo_36,Ground station 1,1,2023-06-01 01:15:00,2023-06-01 01:19:00,240,1,1
WDLeo_29,Ground station 1,1,2023-06-01 01:16:00,2023-06-01 01:25:00,540,1,1
WDLeo_3,Ground station 1,1,2023-06-01 01:17:00,2023-06-01 01:29:00,720,1,1
WDLeo_35,Ground station 1,1,2023-06-01 01:27:00,2023-06-01 01:32:00,300,1,1
WDLeo_28,Ground station 1,1,2023-06-01 01:29:00,2023-06-01 01:37:00,480,1,2
WDLeo_2,Ground station 1,2,2023-06-01 01:30:00,2023-06-01 01:41:00,660,1,2
WDLeo_34,Ground station 1,2,2023-06-01 01:40:00,2023-06-01 01:45:00,300,2,2
WDLeo_1,Ground station 1,2,2023-06-01 01:42:00,2023-06-01 01:54:00,720,2,2
WDLeo_27,Ground station 1,2,2023-06-01 01:42:00,2023-06-01 01:49:00,420,2,2
WDLeo_33,Ground station 1,2,2023-06-01 01:52:00,2023-06-01 01:58:00,360,2,2
WDLeo_8,Ground station 1,2,2023-06-01 01:55:00,2023-06-01 02:06:00,660,2,2
WDLeo_26,Ground station 1,2,2023-06-01 01:55:00,2023-06-01 02:00:00,300,2,2
WDLeo_40,Ground station 1,2,2023-06-01 02:04:00,2023-06-01 02:11:00,420,2,2
WDLeo_7,Ground station 1,2,2023-06-01 02:08:00,2023-06-01 02:19:00,660,2,2
WDLeo_39,Ground station 1,2,2023-06-01 02:17:00,2023-06-01 02:24:00,420,2,2
WDLeo_6,Ground station 1,2,2023-06-01 02:20:00,2023-06-01 02:31:00,660,2,2
WDLeo_38,Ground station 1,2,2023-06-01 02:29:00,2023-06-01 02:37:00,480,2,2
WDLeo_5,Ground station 1,2,2023-06-01 02:33:00,2023-06-01 02:43:00,600,2,2
WDLeo_37,Ground station 1,2,2023-06-01 02:41:00,2023-06-01 02:50:00,540,2,2
WDLeo_4,Ground station 1,2,2023-06-01 02:46:00,2023-06-01 02:56:00,600,2,2
WDLeo_36,Ground station 1,2,2023-06-01 02:54:00,2023-06-01 03:03:00,540,2,2
WDLeo_3,Ground station 1,2,2023-06-01 02:59:00,2023-06-01 03:08:00,540,2,2
WDLeo_35,Ground station 1,2,2023-06-01 03:06:00,2023-06-01 03:16:00,600,2,3
WDLeo_2,Ground station 1,3,2023-06-01 03:12:00,2023-06-01 03:20:00,480,3,3
WDLeo_34,Ground station 1,3,2023-06-01 03:18:00,2023-06-01 03:29:00,660,3,3
WDLeo_1,Ground station 1,3,2023-06-01 03:25:00,2023-06-01 03:33:00,480,3,3
WDLeo_33,Ground station 1,3,2023-06-01 03:31:00,2023-06-01 03:42:00,660,3,3
WDLeo_8,Ground station 1,3,2023-06-01 03:38:00,2023-06-01 03:45:00,420,3,3
WDLeo_40,Ground station 1,3,2023-06-01 03:43:00,2023-06-01 03:54:00,660,3,3
WDLeo_14,Ground station 1,1,2023-06-01 03:49:00,2023-06-01 03:54:00,300,3,3
WDLeo_7,Ground station 1,3,2023-06-01 03:51:00,2023-06-01 03:57:00,360,3,3
WDLeo_39,Ground station 1,3,2023-06-01 03:55:00,2023-06-01 04:07:00,720,3,3
WDLeo_13,Ground station 1,1,2023-06-01 04:00:00,2023-06-01 04:07:00,420,3,3
WDLeo_6,Ground station 1,3,2023-06-01 04:04:00,2023-06-01 04:10:00,360,3,3
WDLeo_38,Ground station 1,3,2023-06-01 04:08:00,2023-06-01 04:19:00,660,3,3
WDLeo_12,Ground station 1,1,2023-06-01 04:12:00,2023-06-01 04:20:00,480,3,3
WDLeo_5,Ground station 1,3,2023-06-01 04:17:00,2023-06-01 04:22:00,300,3,3
WDLeo_37,Ground station 1,3,2023-06-01 04:20:00,2023-06-01 04:32:00,720,3,3
WDLeo_11,Ground station 1,1,2023-06-01 04:24:00,2023-06-01 04:33:00,540,3,3
WDLeo_4,Ground station 1,3,2023-06-01 04:30:00,2023-06-01 04:34:00,240,3,3
WDLeo_36,Ground station 1,3,2023-06-01 04:33:00,2023-06-01 04:44:00,660,3,3
WDLeo_10,Ground station 1,1,2023-06-01 04:36:00,2023-06-01 04:46:00,600,3,3
WDLeo_3,Ground station 1,3,2023-06-01 04:43:00,2023-06-01 04:47:00,240,3,4
WDLeo_35,Ground station 1,3,2023-06-01 04:45:00,2023-06-01 04:57:00,720,3,4
WDLeo_9,Ground station 1,1,2023-06-01 04:48:00,2023-06-01 04:58:00,600,4,4
WDLeo_2,Ground station 1,4,2023-06-01 04:56:00,2023-06-01 05:00:00,240,4,4
WDLeo_34,Ground station 1,4,2023-06-01 04:58:00,2023-06-01 05:09:00,660,4,4
WDLeo_16,Ground station 1,1,2023-06-01 05:00:00,2023-06-01 05:11:00,660,4,4
WDLeo_1,Ground station 1,4,2023-06-01 05:09:00,2023-06-01 05:12:00,180,4,4
WDLeo_33,Ground station 1,4,2023-06-01 05:10:00,2023-06-01 05:21:00,660,4,4
WDLeo_15,Ground station 1,1,2023-06-01 05:12:00,2023-06-01 05:24:00,720,4,4
WDLeo_8,Ground station 1,4,2023-06-01 05:21:00,2023-06-01 05:25:00,240,4,4
WDLeo_40,Ground station 1,4,2023-06-01 05:23:00,2023-06-01 05:34:00,660,4,4
WDLeo_14,Ground station 1,2,2023-06-01 05:24:00,2023-06-01 05:36:00,720,4,4
WDLeo_7,Ground station 1,4,2023-06-01 05:34:00,2023-06-01 05:38:00,240,4,4
WDLeo_39,Ground station 1,4,2023-06-01 05:35:00,2023-06-01 05:46:00,660,4,4
WDLeo_13,Ground station 1,2,2023-06-01 05:37:00,2023-06-01 05:49:00,720,4,4
WDLeo_6,Ground station 1,4,2023-06-01 05:47:00,2023-06-01 05:51:00,240,4,4
WDLeo_38,Ground station 1,4,2023-06-01 05:48:00,2023-06-01 05:58:00,600,4,4
WDLeo_12,Ground station 1,2,2023-06-01 05:49:00,2023-06-01 06:01:00,720,4,4
WDLeo_5,Ground station 1,4,2023-06-01 05:59:00,2023-06-01 06:04:00,300,4,4
WDLeo_37,Ground station 1,4,2023-06-01 06:01:00,2023-06-01 06:10:00,540,4,4
WDLeo_11,Ground station 1,2,2023-06-01 06:02:00,2023-06-01 06:13:00,660,4,4
WDLeo_4,Ground station 1,4,2023-06-01 06:12:00,2023-06-01 06:17:00,300,4,4
WDLeo_36,Ground station 1,4,2023-06-01 06:13:00,2023-06-01 06:22:00,540,4,4
WDLeo_10,Ground station 1,2,2023-06-01 06:14:00,2023-06-01 06:26:00,720,4,5
WDLeo_3,Ground station 1,4,2023-06-01 06:24:00,2023-06-01 06:30:00,360,5,5
WDLeo_35,Ground station 1,4,2023-06-01 06:26:00,2023-06-01 06:33:00,420,5,5
WDLeo_9,Ground station 1,2,2023-06-01 06:27:00,2023-06-01 06:38:00,660,5,5
WDLeo_2,Ground station 1,5,2023-06-01 06:36:00,2023-06-01 06:43:00,420,5,5
WDLeo_16,Ground station 1,2,2023-06-01 06:39:00,2023-06-01 06:51:00,720,5,5
WDLeo_34,Ground station 1,5,2023-06-01 06:40:00,2023-06-01 06:45:00,300,5,5
WDLeo_1,Ground station 1,5,2023-06-01 06:49:00,2023-06-01 06:56:00,420,5,5
WDLeo_15,Ground station 1,2,2023-06-01 06:52:00,2023-06-01 07:03:00,660,5,5
WDLeo_33,Ground station 1,5,2023-06-01 06:54:00,2023-06-01 06:55:00,60,5,5
WDLeo_8,Ground station 1,5,2023-06-01 07:01:00,2023-06-01 07:09:00,480,5,5
WDLeo_14,Ground station 1,3,2023-06-01 07:05:00,2023-06-01 07:15:00,600,5,5
WDLeo_7,Ground station 1,5,2023-06-01 07:13:00,2023-06-01 07:22:00,540,5,5
WDLeo_13,Ground station 1,3,2023-06-01 07:18:00,2023-06-01 07:28:00,600,5,5
WDLeo_6,Ground station 1,5,2023-06-01 07:26:00,2023-06-01 07:35:00,540,5,5
WDLeo_12,Ground station 1,3,2023-06-01 07:30:00,2023-06-01 07:40:00,600,5,5
WDLeo_5,Ground station 1,5,2023-06-01 07:38:00,2023-06-01 07:48:00,600,5,5
WDLeo_11,Ground station 1,3,2023-06-01 07:43:00,2023-06-01 07:52:00,540,5,5
WDLeo_4,Ground station 1,5,2023-06-01 07:50:00,2023-06-01 08:00:00,600,5,6
WDLeo_10,Ground station 1,3,2023-06-01 07:56:00,2023-06-01 08:05:00,540,5,6
WDLeo_3,Ground station 1,5,2023-06-01 08:03:00,2023-06-01 08:13:00,600,6,6
WDLeo_9,Ground station 1,3,2023-06-01 08:09:00,2023-06-01 08:17:00,480,6,6
WDLeo_2,Ground station 1,6,2023-06-01 08:15:00,2023-06-01 08:26:00,660,6,6
WDLeo_16,Ground station 1,3,2023-06-01 08:22:00,2023-06-01 08:29:00,420,6,6
WDLeo_1,Ground station 1,6,2023-06-01 08:27:00,2023-06-01 08:39:00,720,6,6
WDLeo_22,Ground station 1,1,2023-06-01 08:34:00,2023-06-01 08:38:00,240,6,6
WDLeo_15,Ground station 1,3,2023-06-01 08:35:00,2023-06-01 08:42:00,420,6,6
WDLeo_8,Ground station 1,6,2023-06-01 08:40:00,2023-06-01 08:51:00,660,6,6
WDLeo_21,Ground station 1,1,2023-06-01 08:45:00,2023-06-01 08:51:00,360,6,6
WDLeo_14,Ground station 1,4,2023-06-01 08:48:00,2023-06-01 08:54:00,360,6,6
WDLeo_7,Ground station 1,6,2023-06-01 08:52:00,2023-06-01 09:04:00,720,6,6
WDLeo_20,Ground station 1,1,2023-06-01 08:57:00,2023-06-01 09:04:00,420,6,6
WDLeo_13,Ground station 1,4,2023-06-01 09:01:00,2023-06-01 09:07:00,360,6,6
WDLeo_6,Ground station 1,6,2023-06-01 09:05:00,2023-06-01 09:16:00,660,6,6
WDLeo_19,Ground station 1,1,2023-06-01 09:08:00,2023-06-01 09:17:00,540,6,6
WDLeo_12,Ground station 1,4,2023-06-01 09:14:00,2023-06-01 09:19:00,300,6,6
WDLeo_5,Ground station 1,6,2023-06-01 09:17:00,2023-06-01 09:29:00,720,6,6
WDLeo_18,Ground station 1,1,2023-06-01 09:20:00,2023-06-01 09:30:00,600,6,6
WDLeo_11,Ground station 1,4,2023-06-01 09:27:00,2023-06-01 09:31:00,240,6,6
WDLeo_4,Ground station 1,6,2023-06-01 09:29:00,2023-06-01 09:41:00,720,6,7
WDLeo_17,Ground station 1,1,2023-06-01 09:32:00,2023-06-01 09:43:00,660,6,7
WDLeo_10,Ground station 1,4,2023-06-01 09:40:00,2023-06-01 09:44:00,240,7,7
WDLeo_3,Ground station 1,6,2023-06-01 09:42:00,2023-06-01 09:54:00,720,7,7
WDLeo_24,Ground station 1,1,2023-06-01 09:45:00,2023-06-01 09:55:00,600,7,7
WDLeo_9,Ground station 1,4,2023-06-01 09:53:00,2023-06-01 09:57:00,240,7,7
WDLeo_2,Ground station 1,7,2023-06-01 09:54:00,2023-06-01 10:06:00,720,7,7
WDLeo_23,Ground station 1,1,2023-06-01 09:57:00,2023-06-01 10:08:00,660,7,7
WDLeo_16,Ground station 1,4,2023-06-01 10:06:00,2023-06-01 10:09:00,180,7,7
WDLeo_1,Ground station 1,7,2023-06-01 10:07:00,2023-06-01 10:18:00,660,7,7
WDLeo_22,Ground station 1,2,2023-06-01 10:09:00,2023-06-01 10:21:00,720,7,7
WDLeo_15,Ground station 1,4,2023-06-01 10:18:00,2023-06-01 10:22:00,240,7,7
WDLeo_8,Ground station 1,7,2023-06-01 10:20:00,2023-06-01 10:30:00,600,7,7
WDLeo_21,Ground station 1,2,2023-06-01 10:21:00,2023-06-01 10:33:00,720,7,7
WDLeo_14,Ground station 1,5,2023-06-01 10:31:00,2023-06-01 10:35:00,240,7,7
WDLeo_7,Ground station 1,7,2023-06-01 10:32:00,2023-06-01 10:42:00,600,7,7
WDLeo_20,Ground station 1,2,2023-06-01 10:34:00,2023-06-01 10:45:00,660,7,7
WDLeo_13,Ground station 1,5,2023-06-01 10:43:00,2023-06-01 10:48:00,300,7,7
WDLeo_6,Ground station 1,7,2023-06-01 10:45:00,2023-06-01 10:54:00,540,7,7
WDLeo_19,Ground station 1,2,2023-06-01 10:46:00,2023-06-01 10:58:00,720,7,7
WDLeo_12,Ground station 1,5,2023-06-01 10:56:00,2023-06-01 11:01:00,300,7,7
WDLeo_5,Ground station 1,7,2023-06-01 10:58:00,2023-06-01 11:06:00,480,7,7
WDLeo_18,Ground station 1,2,2023-06-01 10:59:00,2023-06-01 11:10:00,660,7,8
WDLeo_11,Ground station 1,5,2023-06-01 11:08:00,2023-06-01 11:14:00,360,7,8
WDLeo_4,Ground station 1,7,2023-06-01 11:11:00,2023-06-01 11:18:00,420,8,8
WDLeo_17,Ground station 1,2,2023-06-01 11:11:00,2023-06-01 11:23:00,720,8,8
WDLeo_10,Ground station 1,5,2023-06-01 11:21:00,2023-06-01 11:27:00,360,8,8
WDLeo_3,Ground station 1,7,2023-06-01 11:24:00,2023-06-01 11:29:00,300,8,8
WDLeo_24,Ground station 1,2,2023-06-01 11:24:00,2023-06-01 11:35:00,660,8,8
WDLeo_9,Ground station 1,5,2023-06-01 11:33:00,2023-06-01 11:40:00,420,8,8
WDLeo_23,Ground station 1,2,2023-06-01 11:36:00,2023-06-01 11:48:00,720,8,8
WDLeo_2,Ground station 1,8,2023-06-01 11:38:00,2023-06-01 11:40:00,120,8,8
WDLeo_16,Ground station 1,5,2023-06-01 11:45:00,2023-06-01 11:53:00,480,8,8
WDLeo_22,Ground station 1,3,2023-06-01 11:49:00,2023-06-01 12:00:00,660,8,8
WDLeo_15,Ground station 1,5,2023-06-01 11:58:00,2023-06-01 12:06:00,480,8,8
WDLeo_21,Ground station 1,3,2023-06-01 12:02:00,2023-06-01 12:12:00,600,8,8
WDLeo_14,Ground station 1,6,2023-06-01 12:10:00,2023-06-01 12:19:00,540,8,8
WDLeo_20,Ground station 1,3,2023-06-01 12:15:00,2023-06-01 12:25:00,600,8,8
WDLeo_13,Ground station 1,6,2023-06-01 12:22:00,2023-06-01 12:32:00,600,8,8
WDLeo_19,Ground station 1,3,2023-06-01 12:28:00,2023-06-01 12:37:00,540,8,8
WDLeo_12,Ground station 1,6,2023-06-01 12:35:00,2023-06-01 12:45:00,600,8,8
WDLeo_18,Ground station 1,3,2023-06-01 12:40:00,2023-06-01 12:49:00,540,8,9
WDLeo_11,Ground station 1,6,2023-06-01 12:47:00,2023-06-01 12:58:00,660,9,9
WDLeo_17,Ground station 1,3,2023-06-01 12:53:00,2023-06-01 13:02:00,540,9,9
WDLeo_10,Ground station 1,6,2023-06-01 13:00:00,2023-06-01 13:10:00,600,9,9
WDLeo_24,Ground station 1,3,2023-06-01 13:06:00,2023-06-01 13:14:00,480,9,9
WDLeo_9,Ground station 1,6,2023-06-01 13:12:00,2023-06-01 13:23:00,660,9,9
WDLeo_23,Ground station 1,3,2023-06-01 13:19:00,2023-06-01 13:26:00,420,9,9
WDLeo_30,Ground station 1,2,2023-06-01 13:19:00,2023-06-01 13:22:00,180,9,9
WDLeo_16,Ground station 1,6,2023-06-01 13:24:00,2023-06-01 13:36:00,720,9,9
WDLeo_29,Ground station 1,2,2023-06-01 13:30:00,2023-06-01 13:36:00,360,9,9
WDLeo_22,Ground station 1,4,2023-06-01 13:32:00,2023-06-01 13:39:00,420,9,9
WDLeo_15,Ground station 1,6,2023-06-01 13:37:00,2023-06-01 13:48:00,660,9,9
WDLeo_28,Ground station 1,2,2023-06-01 13:41:00,2023-06-01 13:49:00,480,9,9
WDLeo_21,Ground station 1,4,2023-06-01 13:45:00,2023-06-01 13:51:00,360,9,9
WDLeo_14,Ground station 1,7,2023-06-01 13:49:00,2023-06-01 14:01:00,720,9,9
WDLeo_27,Ground station 1,3,2023-06-01 13:53:00,2023-06-01 14:02:00,540,9,9
WDLeo_20,Ground station 1,4,2023-06-01 13:58:00,2023-06-01 14:03:00,300,9,9
WDLeo_13,Ground station 1,7,2023-06-01 14:01:00,2023-06-01 14:13:00,720,9,9
WDLeo_26,Ground station 1,3,2023-06-01 14:05:00,2023-06-01 14:15:00,600,9,9
WDLeo_19,Ground station 1,4,2023-06-01 14:11:00,2023-06-01 14:16:00,300,9,9
WDLeo_12,Ground station 1,7,2023-06-01 14:14:00,2023-06-01 14:26:00,720,9,10
WDLeo_25,Ground station 1,2,2023-06-01 14:17:00,2023-06-01 14:27:00,600,9,10
WDLeo_18,Ground station 1,4,2023-06-01 14:24:00,2023-06-01 14:28:00,240,10,10
WDLeo_11,Ground station 1,7,2023-06-01 14:26:00,2023-06-01 14:38:00,720,10,10
WDLeo_32,Ground station 1,2,2023-06-01 14:29:00,2023-06-01 14:40:00,660,10,10
WDLeo_17,Ground station 1,4,2023-06-01 14:37:00,2023-06-01 14:41:00,240,10,10
WDLeo_10,Ground station 1,7,2023-06-01 14:39:00,2023-06-01 14:50:00,660,10,10
WDLeo_31,Ground station 1,2,2023-06-01 14:41:00,2023-06-01 14:52:00,660,10,10
WDLeo_24,Ground station 1,4,2023-06-01 14:50:00,2023-06-01 14:54:00,240,10,10
WDLeo_9,Ground station 1,7,2023-06-01 14:51:00,2023-06-01 15:03:00,720,10,10
WDLeo_30,Ground station 1,3,2023-06-01 14:53:00,2023-06-01 15:05:00,720,10,10
WDLeo_23,Ground station 1,4,2023-06-01 15:03:00,2023-06-01 15:07:00,240,10,10
WDLeo_16,Ground station 1,7,2023-06-01 15:04:00,2023-06-01 15:15:00,660,10,10
WDLeo_29,Ground station 1,3,2023-06-01 15:06:00,2023-06-01 15:17:00,660,10,10
WDLeo_22,Ground station 1,5,2023-06-01 15:15:00,2023-06-01 15:19:00,240,10,10
WDLeo_15,Ground station 1,7,2023-06-01 15:17:00,2023-06-01 15:27:00,600,10,10
WDLeo_28,Ground station 1,3,2023-06-01 15:18:00,2023-06-01 15:30:00,720,10,10
WDLeo_21,Ground station 1,5,2023-06-01 15:28:00,2023-06-01 15:32:00,240,10,10
WDLeo_14,Ground station 1,8,2023-06-01 15:29:00,2023-06-01 15:39:00,600,10,10
WDLeo_27,Ground station 1,4,2023-06-01 15:31:00,2023-06-01 15:42:00,660,10,10
WDLeo_20,Ground station 1,5,2023-06-01 15:40:00,2023-06-01 15:45:00,300,10,10
WDLeo_13,Ground station 1,8,2023-06-01 15:42:00,2023-06-01 15:51:00,540,10,10
WDLeo_26,Ground station 1,4,2023-06-01 15:43:00,2023-06-01 15:55:00,720,10,10
WDLeo_19,Ground station 1,5,2023-06-01 15:53:00,2023-06-01 15:58:00,300,10,11
WDLeo_12,Ground station 1,8,2023-06-01 15:55:00,2023-06-01 16:03:00,480,10,11
WDLeo_25,Ground station 1,3,2023-06-01 15:56:00,2023-06-01 16:07:00,660,10,11
WDLeo_18,Ground station 1,5,2023-06-01 16:05:00,2023-06-01 16:11:00,360,11,11
WDLeo_11,Ground station 1,8,2023-06-01 16:08:00,2023-06-01 16:14:00,360,11,11
WDLeo_32,Ground station 1,3,2023-06-01 16:08:00,2023-06-01 16:20:00,720,11,11
WDLeo_17,Ground station 1,5,2023-06-01 16:18:00,2023-06-01 16:25:00,420,11,11
WDLeo_31,Ground station 1,3,2023-06-01 16:21:00,2023-06-01 16:32:00,660,11,11
WDLeo_10,Ground station 1,8,2023-06-01 16:22:00,2023-06-01 16:25:00,180,11,11
WDLeo_24,Ground station 1,5,2023-06-01 16:30:00,2023-06-01 16:38:00,480,11,11
WDLeo_30,Ground station 1,4,2023-06-01 16:34:00,2023-06-01 16:44:00,600,11,11
WDLeo_23,Ground station 1,5,2023-06-01 16:42:00,2023-06-01 16:50:00,480,11,11
WDLeo_29,Ground station 1,4,2023-06-01 16:46:00,2023-06-01 16:57:00,660,11,11
WDLeo_22,Ground station 1,6,2023-06-01 16:55:00,2023-06-01 17:03:00,480,11,11
WDLeo_28,Ground station 1,4,2023-06-01 16:59:00,2023-06-01 17:09:00,600,11,11
WDLeo_21,Ground station 1,6,2023-06-01 17:07:00,2023-06-01 17:16:00,540,11,11
WDLeo_27,Ground station 1,5,2023-06-01 17:12:00,2023-06-01 17:21:00,540,11,11
WDLeo_20,Ground station 1,6,2023-06-01 17:19:00,2023-06-01 17:29:00,600,11,11
WDLeo_26,Ground station 1,5,2023-06-01 17:25:00,2023-06-01 17:34:00,540,11,12
WDLeo_19,Ground station 1,6,2023-06-01 17:32:00,2023-06-01 17:42:00,600,11,12
WDLeo_25,Ground station 1,4,2023-06-01 17:38:00,2023-06-01 17:46:00,480,12,12
WDLeo_18,Ground station 1,6,2023-06-01 17:44:00,2023-06-01 17:55:00,660,12,12
WDLeo_32,Ground station 1,4,2023-06-01 17:51:00,2023-06-01 17:58:00,420,12,12
WDLeo_17,Ground station 1,6,2023-06-01 17:56:00,2023-06-01 18:07:00,660,12,12
WDLeo_31,Ground station 1,4,2023-06-01 18:04:00,2023-06-01 18:11:00,420,12,12
WDLeo_38,Ground station 1,5,2023-06-01 18:04:00,2023-06-01 18:06:00,120,12,12
WDLeo_24,Ground station 1,6,2023-06-01 18:09:00,2023-06-01 18:20:00,660,12,12
WDLeo_37,Ground station 1,5,2023-06-01 18:14:00,2023-06-01 18:20:00,360,12,12
WDLeo_30,Ground station 1,5,2023-06-01 18:17:00,2023-06-01 18:23:00,360,12,12
WDLeo_23,Ground station 1,6,2023-06-01 18:21:00,2023-06-01 18:33:00,720,12,12
WDLeo_36,Ground station 1,5,2023-06-01 18:26:00,2023-06-01 18:33:00,420,12,12
WDLeo_29,Ground station 1,5,2023-06-01 18:30:00,2023-06-01 18:35:00,300,12,12
WDLeo_22,Ground station 1,7,2023-06-01 18:34:00,2023-06-01 18:45:00,660,12,12
WDLeo_35,Ground station 1,5,2023-06-01 18:38:00,2023-06-01 18:46:00,480,12,12
WDLeo_28,Ground station 1,5,2023-06-01 18:43:00,2023-06-01 18:48:00,300,12,12
WDLeo_21,Ground station 1,7,2023-06-01 18:46:00,2023-06-01 18:58:00,720,12,12
WDLeo_34,Ground station 1,6,2023-06-01 18:49:00,2023-06-01 18:59:00,600,12,12
WDLeo_27,Ground station 1,6,2023-06-01 18:56:00,2023-06-01 19:00:00,240,12,12
WDLeo_20,Ground station 1,7,2023-06-01 18:58:00,2023-06-01 19:10:00,720,12,13
WDLeo_33,Ground station 1,6,2023-06-01 19:01:00,2023-06-01 19:12:00,660,12,13
WDLeo_26,Ground station 1,6,2023-06-01 19:09:00,2023-06-01 19:13:00,240,13,13
WDLeo_19,Ground station 1,7,2023-06-01 19:11:00,2023-06-01 19:23:00,720,13,13
WDLeo_40,Ground station 1,5,2023-06-01 19:14:00,2023-06-01 19:24:00,600,13,13
WDLeo_25,Ground station 1,5,2023-06-01 19:22:00,2023-06-01 19:25:00,180,13,13
WDLeo_18,Ground station 1,7,2023-06-01 19:23:00,2023-06-01 19:35:00,720,13,13
WDLeo_39,Ground station 1,5,2023-06-01 19:26:00,2023-06-01 19:37:00,660,13,13
WDLeo_32,Ground station 1,5,2023-06-01 19:35:00,2023-06-01 19:38:00,180,13,13
WDLeo_17,Ground station 1,7,2023-06-01 19:36:00,2023-06-01 19:47:00,660,13,13
WDLeo_38,Ground station 1,6,2023-06-01 19:38:00,2023-06-01 19:49:00,660,13,13
WDLeo_31,Ground station 1,5,2023-06-01 19:47:00,2023-06-01 19:51:00,240,13,13
WDLeo_24,Ground station 1,7,2023-06-01 19:48:00,2023-06-01 19:59:00,660,13,13
WDLeo_37,Ground station 1,6,2023-06-01 19:50:00,2023-06-01 20:02:00,720,13,13
WDLeo_30,Ground station 1,6,2023-06-01 20:00:00,2023-06-01 20:04:00,240,13,13
WDLeo_23,Ground station 1,7,2023-06-01 20:01:00,2023-06-01 20:12:00,660,13,13
WDLeo_36,Ground station 1,6,2023-06-01 20:03:00,2023-06-01 20:14:00,660,13,13
WDLeo_29,Ground station 1,6,2023-06-01 20:13:00,2023-06-01 20:17:00,240,13,13
WDLeo_22,Ground station 1,8,2023-06-01 20:14:00,2023-06-01 20:24:00,600,13,13
WDLeo_35,Ground station 1,6,2023-06-01 20:15:00,2023-06-01 20:27:00,720,13,13
WDLeo_28,Ground station 1,6,2023-06-01 20:25:00,2023-06-01 20:30:00,300,13,13
WDLeo_21,Ground station 1,8,2023-06-01 20:27:00,2023-06-01 20:35:00,480,13,13
WDLeo_34,Ground station 1,7,2023-06-01 20:28:00,2023-06-01 20:39:00,660,13,13
WDLeo_27,Ground station 1,7,2023-06-01 20:37:00,2023-06-01 20:43:00,360,13,13
WDLeo_20,Ground station 1,8,2023-06-01 20:39:00,2023-06-01 20:47:00,480,13,14
WDLeo_33,Ground station 1,7,2023-06-01 20:40:00,2023-06-01 20:52:00,720,13,14
WDLeo_26,Ground station 1,7,2023-06-01 20:50:00,2023-06-01 20:56:00,360,14,14
WDLeo_19,Ground station 1,8,2023-06-01 20:52:00,2023-06-01 20:59:00,420,14,14
WDLeo_40,Ground station 1,6,2023-06-01 20:53:00,2023-06-01 21:04:00,660,14,14
WDLeo_25,Ground station 1,6,2023-06-01 21:02:00,2023-06-01 21:09:00,420,14,14
WDLeo_39,Ground station 1,6,2023-06-01 21:05:00,2023-06-01 21:16:00,660,14,14
WDLeo_18,Ground station 1,8,2023-06-01 21:06:00,2023-06-01 21:10:00,240,14,14
WDLeo_32,Ground station 1,6,2023-06-01 21:15:00,2023-06-01 21:22:00,420,14,14
WDLeo_38,Ground station 1,7,2023-06-01 21:18:00,2023-06-01 21:29:00,660,14,14
WDLeo_31,Ground station 1,6,2023-06-01 21:27:00,2023-06-01 21:35:00,480,14,14
WDLeo_37,Ground station 1,7,2023-06-01 21:31:00,2023-06-01 21:41:00,600,14,14
WDLeo_30,Ground station 1,7,2023-06-01 21:39:00,2023-06-01 21:48:00,540,14,14
WDLeo_36,Ground station 1,7,2023-06-01 21:43:00,2023-06-01 21:53:00,600,14,14
WDLeo_29,Ground station 1,7,2023-06-01 21:52:00,2023-06-01 22:01:00,540,14,14
WDLeo_35,Ground station 1,7,2023-06-01 21:56:00,2023-06-01 22:06:00,600,14,14
WDLeo_28,Ground station 1,7,2023-06-01 22:04:00,2023-06-01 22:13:00,540,14,14
WDLeo_34,Ground station 1,8,2023-06-01 22:09:00,2023-06-01 22:18:00,540,14,14
WDLeo_27,Ground station 1,8,2023-06-01 22:16:00,2023-06-01 22:26:00,600,14,15
WDLeo_33,Ground station 1,8,2023-06-01 22:22:00,2023-06-01 22:30:00,480,15,15
WDLeo_26,Ground station 1,8,2023-06-01 22:29:00,2023-06-01 22:39:00,600,15,15
WDLeo_40,Ground station 1,7,2023-06-01 22:35:00,2023-06-01 22:43:00,480,15,15
WDLeo_25,Ground station 1,7,2023-06-01 22:41:00,2023-06-01 22:52:00,660,15,15
WDLeo_39,Ground station 1,7,2023-06-01 22:48:00,2023-06-01 22:55:00,420,15,15
WDLeo_7,Ground station 1,8,2023-06-01 22:49:00,2023-06-01 22:50:00,60,15,15
WDLeo_32,Ground station 1,7,2023-06-01 22:53:00,2023-06-01 23:04:00,660,15,15
WDLeo_6,Ground station 1,8,2023-06-01 22:59:00,2023-06-01 23:04:00,300,15,15
WDLeo_38,Ground station 1,8,2023-06-01 23:01:00,2023-06-01 23:07:00,360,15,15
WDLeo_31,Ground station 1,7,2023-06-01 23:06:00,2023-06-01 23:17:00,660,15,15
WDLeo_5,Ground station 1,8,2023-06-01 23:11:00,2023-06-01 23:17:00,360,15,15
WDLeo_37,Ground station 1,8,2023-06-01 23:14:00,2023-06-01 23:20:00,360,15,15
WDLeo_30,Ground station 1,8,2023-06-01 23:18:00,2023-06-01 23:30:00,720,15,15
WDLeo_4,Ground station 1,8,2023-06-01 23:22:00,2023-06-01 23:30:00,480,15,15
WDLeo_36,Ground station 1,8,2023-06-01 23:27:00,2023-06-01 23:32:00,300,15,15
WDLeo_29,Ground station 1,8,2023-06-01 23:30:00,2023-06-01 23:42:00,720,15,15
WDLeo_3,Ground station 1,8,2023-06-01 23:34:00,2023-06-01 23:43:00,540,15,15
WDLeo_35,Ground station 1,8,2023-06-01 23:40:00,2023-06-01 23:45:00,300,15,15
WDLeo_28,Ground station 1,8,2023-06-01 23:43:00,2023-06-01 23:55:00,720,15,16
WDLeo_2,Ground station 1,9,2023-06-01 23:46:00,2023-06-01 23:56:00,600,15,16
WDLeo_34,Ground station 1,9,2023-06-01 23:53:00,2023-06-01 23:57:00,240,15,16
WDLeo_27,Ground station 1,9,2023-06-01 23:55:00,2023-06-02 00:07:00,720,16,16
WDLeo_1,Ground station 1,8,2023-06-01 23:58:00,2023-06-02 00:09:00,660,16,16
WDLeo_33,Ground station 1,9,2023-06-02 00:06:00,2023-06-02 00:10:00,240,16,16
WDLeo_26,Ground station 1,9,2023-06-02 00:08:00,2023-06-02 00:19:00,660,16,16
WDLeo_8,Ground station 1,8,2023-06-02 00:10:00,2023-06-02 00:21:00,660,16,16
WDLeo_40,Ground station 1,8,2023-06-02 00:19:00,2023-06-02 00:22:00,180,16,16
WDLeo_25,Ground station 1,8,2023-06-02 00:20:00,2023-06-02 00:32:00,720,16,16
WDLeo_7,Ground station 1,9,2023-06-02 00:22:00,2023-06-02 00:34:00,720,16,16
WDLeo_39,Ground station 1,8,2023-06-02 00:32:00,2023-06-02 00:35:00,180,16,16
WDLeo_32,Ground station 1,8,2023-06-02 00:33:00,2023-06-02 00:44:00,660,16,16
WDLeo_6,Ground station 1,9,2023-06-02 00:35:00,2023-06-02 00:46:00,660,16,16
WDLeo_38,Ground station 1,9,2023-06-02 00:44:00,2023-06-02 00:48:00,240,16,16
WDLeo_31,Ground station 1,8,2023-06-02 00:45:00,2023-06-02 00:56:00,660,16,16
WDLeo_5,Ground station 1,9,2023-06-02 00:47:00,2023-06-02 00:59:00,720,16,16
WDLeo_37,Ground station 1,9,2023-06-02 00:57:00,2023-06-02 01:01:00,240,16,16
WDLeo_30,Ground station 1,9,2023-06-02 00:58:00,2023-06-02 01:08:00,600,16,16
WDLeo_4,Ground station 1,9,2023-06-02 00:59:00,2023-06-02 01:11:00,720,16,16
WDLeo_36,Ground station 1,9,2023-06-02 01:09:00,2023-06-02 01:14:00,300,16,16
WDLeo_29,Ground station 1,9,2023-06-02 01:11:00,2023-06-02 01:20:00,540,16,16
WDLeo_3,Ground station 1,9,2023-06-02 01:12:00,2023-06-02 01:24:00,720,16,16
WDLeo_35,Ground station 1,9,2023-06-02 01:22:00,2023-06-02 01:27:00,300,16,16
WDLeo_2,Ground station 1,10,2023-06-02 01:24:00,2023-06-02 01:36:00,720,16,17
WDLeo_28,Ground station 1,9,2023-06-02 01:24:00,2023-06-02 01:32:00,480,16,17
WDLeo_34,Ground station 1,10,2023-06-02 01:34:00,2023-06-02 01:40:00,360,17,17
WDLeo_1,Ground station 1,9,2023-06-02 01:37:00,2023-06-02 01:48:00,660,17,17
WDLeo_27,Ground station 1,10,2023-06-02 01:37:00,2023-06-02 01:43:00,360,17,17
WDLeo_33,Ground station 1,10,2023-06-02 01:47:00,2023-06-02 01:53:00,360,17,17
WDLeo_8,Ground station 1,9,2023-06-02 01:50:00,2023-06-02 02:01:00,660,17,17
WDLeo_26,Ground station 1,10,2023-06-02 01:50:00,2023-06-02 01:55:00,300,17,17
WDLeo_40,Ground station 1,9,2023-06-02 01:59:00,2023-06-02 02:06:00,420,17,17
WDLeo_7,Ground station 1,10,2023-06-02 02:02:00,2023-06-02 02:13:00,660,17,17
WDLeo_39,Ground station 1,9,2023-06-02 02:11:00,2023-06-02 02:19:00,480,17,17
WDLeo_6,Ground station 1,10,2023-06-02 02:15:00,2023-06-02 02:26:00,660,17,17
WDLeo_38,Ground station 1,10,2023-06-02 02:24:00,2023-06-02 02:32:00,480,17,17
WDLeo_5,Ground station 1,10,2023-06-02 02:28:00,2023-06-02 02:38:00,600,17,17
WDLeo_37,Ground station 1,10,2023-06-02 02:36:00,2023-06-02 02:45:00,540,17,17
WDLeo_4,Ground station 1,10,2023-06-02 02:41:00,2023-06-02 02:50:00,540,17,17
WDLeo_36,Ground station 1,10,2023-06-02 02:48:00,2023-06-02 02:58:00,600,17,17
WDLeo_3,Ground station 1,10,2023-06-02 02:54:00,2023-06-02 03:03:00,540,17,17
WDLeo_35,Ground station 1,10,2023-06-02 03:01:00,2023-06-02 03:11:00,600,17,18
WDLeo_2,Ground station 1,11,2023-06-02 03:06:00,2023-06-02 03:15:00,540,17,18
WDLeo_34,Ground station 1,11,2023-06-02 03:13:00,2023-06-02 03:23:00,600,18,18
WDLeo_1,Ground station 1,10,2023-06-02 03:19:00,2023-06-02 03:27:00,480,18,18
WDLeo_33,Ground station 1,11,2023-06-02 03:25:00,2023-06-02 03:36:00,660,18,18
WDLeo_8,Ground station 1,10,2023-06-02 03:32:00,2023-06-02 03:40:00,480,18,18
WDLeo_40,Ground station 1,10,2023-06-02 03:38:00,2023-06-02 03:49:00,660,18,18
WDLeo_14,Ground station 1,9,2023-06-02 03:44:00,2023-06-02 03:48:00,240,18,18
WDLeo_7,Ground station 1,11,2023-06-02 03:45:00,2023-06-02 03:52:00,420,18,18
WDLeo_39,Ground station 1,10,2023-06-02 03:50:00,2023-06-02 04:01:00,660,18,18
WDLeo_13,Ground station 1,9,2023-06-02 03:55:00,2023-06-02 04:02:00,420,18,18
WDLeo_6,Ground station 1,11,2023-06-02 03:58:00,2023-06-02 04:04:00,360,18,18
WDLeo_38,Ground station 1,11,2023-06-02 04:02:00,2023-06-02 04:14:00,720,18,18
WDLeo_12,Ground station 1,9,2023-06-02 04:07:00,2023-06-02 04:15:00,480,18,18
WDLeo_5,Ground station 1,11,2023-06-02 04:11:00,2023-06-02 04:17:00,360,18,18
WDLeo_37,Ground station 1,11,2023-06-02 04:15:00,2023-06-02 04:27:00,720,18,18
WDLeo_11,Ground station 1,9,2023-06-02 04:19:00,2023-06-02 04:28:00,540,18,18
WDLeo_4,Ground station 1,11,2023-06-02 04:24:00,2023-06-02 04:29:00,300,18,18
WDLeo_36,Ground station 1,11,2023-06-02 04:27:00,2023-06-02 04:39:00,720,18,18
WDLeo_10,Ground station 1,9,2023-06-02 04:31:00,2023-06-02 04:40:00,540,18,18
WDLeo_3,Ground station 1,11,2023-06-02 04:37:00,2023-06-02 04:42:00,300,18,19
WDLeo_35,Ground station 1,11,2023-06-02 04:40:00,2023-06-02 04:51:00,660,18,19
WDLeo_9,Ground station 1,8,2023-06-02 04:43:00,2023-06-02 04:53:00,600,19,19
WDLeo_2,Ground station 1,12,2023-06-02 04:50:00,2023-06-02 04:54:00,240,19,19
WDLeo_34,Ground station 1,12,2023-06-02 04:52:00,2023-06-02 05:04:00,720,19,19
WDLeo_16,Ground station 1,8,2023-06-02 04:55:00,2023-06-02 05:06:00,660,19,19
WDLeo_1,Ground station 1,11,2023-06-02 05:03:00,2023-06-02 05:07:00,240,19,19
WDLeo_33,Ground station 1,12,2023-06-02 05:05:00,2023-06-02 05:16:00,660,19,19
WDLeo_15,Ground station 1,8,2023-06-02 05:07:00,2023-06-02 05:18:00,660,19,19
WDLeo_8,Ground station 1,11,2023-06-02 05:16:00,2023-06-02 05:20:00,240,19,19
WDLeo_40,Ground station 1,11,2023-06-02 05:17:00,2023-06-02 05:28:00,660,19,19
WDLeo_14,Ground station 1,10,2023-06-02 05:19:00,2023-06-02 05:31:00,720,19,19
WDLeo_7,Ground station 1,12,2023-06-02 05:29:00,2023-06-02 05:32:00,180,19,19
WDLeo_39,Ground station 1,11,2023-06-02 05:30:00,2023-06-02 05:41:00,660,19,19
WDLeo_13,Ground station 1,10,2023-06-02 05:32:00,2023-06-02 05:43:00,660,19,19
WDLeo_6,Ground station 1,12,2023-06-02 05:41:00,2023-06-02 05:45:00,240,19,19
WDLeo_38,Ground station 1,12,2023-06-02 05:42:00,2023-06-02 05:53:00,660,19,19
WDLeo_12,Ground station 1,10,2023-06-02 05:44:00,2023-06-02 05:56:00,720,19,19
WDLeo_5,Ground station 1,12,2023-06-02 05:54:00,2023-06-02 05:58:00,240,19,19
WDLeo_37,Ground station 1,12,2023-06-02 05:55:00,2023-06-02 06:05:00,600,19,19
WDLeo_11,Ground station 1,10,2023-06-02 05:56:00,2023-06-02 06:08:00,720,19,19
WDLeo_4,Ground station 1,12,2023-06-02 06:06:00,2023-06-02 06:11:00,300,19,19
WDLeo_36,Ground station 1,12,2023-06-02 06:08:00,2023-06-02 06:16:00,480,19,19
WDLeo_10,Ground station 1,10,2023-06-02 06:09:00,2023-06-02 06:21:00,720,19,20
WDLeo_3,Ground station 1,12,2023-06-02 06:19:00,2023-06-02 06:24:00,300,20,20
WDLeo_9,Ground station 1,9,2023-06-02 06:21:00,2023-06-02 06:33:00,720,20,20
WDLeo_35,Ground station 1,12,2023-06-02 06:21:00,2023-06-02 06:28:00,420,20,20
WDLeo_2,Ground station 1,13,2023-06-02 06:31:00,2023-06-02 06:37:00,360,20,20
WDLeo_16,Ground station 1,9,2023-06-02 06:34:00,2023-06-02 06:45:00,660,20,20
WDLeo_34,Ground station 1,13,2023-06-02 06:34:00,2023-06-02 06:39:00,300,20,20
WDLeo_1,Ground station 1,12,2023-06-02 06:43:00,2023-06-02 06:50:00,420,20,20
WDLeo_15,Ground station 1,9,2023-06-02 06:47:00,2023-06-02 06:58:00,660,20,20
WDLeo_33,Ground station 1,13,2023-06-02 06:48:00,2023-06-02 06:50:00,120,20,20
WDLeo_8,Ground station 1,12,2023-06-02 06:56:00,2023-06-02 07:03:00,420,20,20
WDLeo_14,Ground station 1,11,2023-06-02 06:59:00,2023-06-02 07:10:00,660,20,20
WDLeo_7,Ground station 1,13,2023-06-02 07:08:00,2023-06-02 07:16:00,480,20,20
WDLeo_13,Ground station 1,11,2023-06-02 07:12:00,2023-06-02 07:22:00,600,20,20
WDLeo_6,Ground station 1,13,2023-06-02 07:20:00,2023-06-02 07:29:00,540,20,20
WDLeo_12,Ground station 1,11,2023-06-02 07:25:00,2023-06-02 07:35:00,600,20,20
WDLeo_5,Ground station 1,13,2023-06-02 07:33:00,2023-06-02 07:42:00,540,20,20
WDLeo_11,Ground station 1,11,2023-06-02 07:38:00,2023-06-02 07:47:00,540,20,20
WDLeo_4,Ground station 1,13,2023-06-02 07:45:00,2023-06-02 07:55:00,600,20,21
WDLeo_10,Ground station 1,11,2023-06-02 07:51:00,2023-06-02 07:59:00,480,20,21
WDLeo_3,Ground station 1,13,2023-06-02 07:57:00,2023-06-02 08:08:00,660,21,21
WDLeo_9,Ground station 1,10,2023-06-02 08:04:00,2023-06-02 08:12:00,480,21,21
WDLeo_2,Ground station 1,14,2023-06-02 08:10:00,2023-06-02 08:21:00,660,21,21
WDLeo_16,Ground station 1,10,2023-06-02 08:17:00,2023-06-02 08:24:00,420,21,21
WDLeo_1,Ground station 1,13,2023-06-02 08:22:00,2023-06-02 08:33:00,660,21,21
WDLeo_22,Ground station 1,9,2023-06-02 08:29:00,2023-06-02 08:32:00,180,21,21
WDLeo_15,Ground station 1,10,2023-06-02 08:30:00,2023-06-02 08:37:00,420,21,21
WDLeo_8,Ground station 1,13,2023-06-02 08:35:00,2023-06-02 08:46:00,660,21,21
WDLeo_21,Ground station 1,9,2023-06-02 08:40:00,2023-06-02 08:46:00,360,21,21
WDLeo_14,Ground station 1,12,2023-06-02 08:43:00,2023-06-02 08:49:00,360,21,21
WDLeo_7,Ground station 1,14,2023-06-02 08:47:00,2023-06-02 08:58:00,660,21,21
WDLeo_20,Ground station 1,9,2023-06-02 08:52:00,2023-06-02 08:59:00,420,21,21
WDLeo_13,Ground station 1,12,2023-06-02 08:56:00,2023-06-02 09:01:00,300,21,21
WDLeo_6,Ground station 1,14,2023-06-02 08:59:00,2023-06-02 09:11:00,720,21,21
WDLeo_19,Ground station 1,9,2023-06-02 09:03:00,2023-06-02 09:12:00,540,21,21
WDLeo_12,Ground station 1,12,2023-06-02 09:09:00,2023-06-02 09:14:00,300,21,21
WDLeo_5,Ground station 1,14,2023-06-02 09:12:00,2023-06-02 09:23:00,660,21,21
WDLeo_18,Ground station 1,9,2023-06-02 09:15:00,2023-06-02 09:25:00,600,21,21
WDLeo_11,Ground station 1,12,2023-06-02 09:22:00,2023-06-02 09:26:00,240,21,21
WDLeo_4,Ground station 1,14,2023-06-02 09:24:00,2023-06-02 09:36:00,720,21,22
WDLeo_17,Ground station 1,8,2023-06-02 09:27:00,2023-06-02 09:38:00,660,21,22
WDLeo_10,Ground station 1,12,2023-06-02 09:35:00,2023-06-02 09:39:00,240,22,22
WDLeo_3,Ground station 1,14,2023-06-02 09:37:00,2023-06-02 09:48:00,660,22,22
WDLeo_24,Ground station 1,8,2023-06-02 09:39:00,2023-06-02 09:50:00,660,22,22
WDLeo_9,Ground station 1,11,2023-06-02 09:48:00,2023-06-02 09:51:00,180,22,22
WDLeo_2,Ground station 1,15,2023-06-02 09:49:00,2023-06-02 10:01:00,720,22,22
WDLeo_23,Ground station 1,8,2023-06-02 09:51:00,2023-06-02 10:03:00,720,22,22
WDLeo_16,Ground station 1,11,2023-06-02 10:00:00,2023-06-02 10:04:00,240,22,22
WDLeo_1,Ground station 1,14,2023-06-02 10:02:00,2023-06-02 10:13:00,660,22,22
WDLeo_22,Ground station 1,10,2023-06-02 10:04:00,2023-06-02 10:15:00,660,22,22
WDLeo_15,Ground station 1,11,2023-06-02 10:13:00,2023-06-02 10:17:00,240,22,22
WDLeo_8,Ground station 1,14,2023-06-02 10:14:00,2023-06-02 10:25:00,660,22,22
WDLeo_21,Ground station 1,10,2023-06-02 10:16:00,2023-06-02 10:28:00,720,22,22
WDLeo_14,Ground station 1,13,2023-06-02 10:26:00,2023-06-02 10:30:00,240,22,22
WDLeo_7,Ground station 1,15,2023-06-02 10:27:00,2023-06-02 10:37:00,600,22,22
WDLeo_20,Ground station 1,10,2023-06-02 10:28:00,2023-06-02 10:40:00,720,22,22
WDLeo_13,Ground station 1,13,2023-06-02 10:38:00,2023-06-02 10:43:00,300,22,22
WDLeo_6,Ground station 1,15,2023-06-02 10:40:00,2023-06-02 10:49:00,540,22,22
WDLeo_19,Ground station 1,10,2023-06-02 10:41:00,2023-06-02 10:53:00,720,22,22
WDLeo_12,Ground station 1,13,2023-06-02 10:51:00,2023-06-02 10:56:00,300,22,22
WDLeo_5,Ground station 1,15,2023-06-02 10:52:00,2023-06-02 11:01:00,540,22,22
WDLeo_18,Ground station 1,10,2023-06-02 10:53:00,2023-06-02 11:05:00,720,22,23
WDLeo_11,Ground station 1,13,2023-06-02 11:03:00,2023-06-02 11:09:00,360,22,23
WDLeo_4,Ground station 1,15,2023-06-02 11:05:00,2023-06-02 11:13:00,480,23,23
WDLeo_17,Ground station 1,9,2023-06-02 11:06:00,2023-06-02 11:17:00,660,23,23
WDLeo_10,Ground station 1,13,2023-06-02 11:15:00,2023-06-02 11:22:00,420,23,23
WDLeo_24,Ground station 1,9,2023-06-02 11:18:00,2023-06-02 11:30:00,720,23,23
WDLeo_3,Ground station 1,15,2023-06-02 11:19:00,2023-06-02 11:24:00,300,23,23
WDLeo_9,Ground station 1,12,2023-06-02 11:28:00,2023-06-02 11:35:00,420,23,23
WDLeo_23,Ground station 1,9,2023-06-02 11:31:00,2023-06-02 11:42:00,660,23,23
WDLeo_2,Ground station 1,16,2023-06-02 11:32:00,2023-06-02 11:35:00,180,23,23
WDLeo_16,Ground station 1,12,2023-06-02 11:40:00,2023-06-02 11:48:00,480,23,23
WDLeo_22,Ground station 1,11,2023-06-02 11:44:00,2023-06-02 11:55:00,660,23,23
WDLeo_15,Ground station 1,12,2023-06-02 11:53:00,2023-06-02 12:01:00,480,23,23
WDLeo_21,Ground station 1,11,2023-06-02 11:57:00,2023-06-02 12:07:00,600,23,23
WDLeo_14,Ground station 1,14,2023-06-02 12:05:00,2023-06-02 12:14:00,540,23,23
WDLeo_20,Ground station 1,11,2023-06-02 12:09:00,2023-06-02 12:19:00,600,23,23
WDLeo_13,Ground station 1,14,2023-06-02 12:17:00,2023-06-02 12:27:00,600,23,23
WDLeo_19,Ground station 1,11,2023-06-02 12:22:00,2023-06-02 12:32:00,600,23,23
WDLeo_12,Ground station 1,14,2023-06-02 12:30:00,2023-06-02 12:39:00,540,23,23
WDLeo_18,Ground station 1,11,2023-06-02 12:35:00,2023-06-02 12:44:00,540,23,24
WDLeo_11,Ground station 1,14,2023-06-02 12:42:00,2023-06-02 12:52:00,600,24,24
WDLeo_17,Ground station 1,10,2023-06-02 12:48:00,2023-06-02 12:56:00,480,24,24
WDLeo_10,Ground station 1,14,2023-06-02 12:54:00,2023-06-02 13:05:00,660,24,24
WDLeo_24,Ground station 1,10,2023-06-02 13:01:00,2023-06-02 13:09:00,480,24,24
WDLeo_9,Ground station 1,13,2023-06-02 13:07:00,2023-06-02 13:18:00,660,24,24
WDLeo_23,Ground station 1,10,2023-06-02 13:14:00,2023-06-02 13:21:00,420,24,24
WDLeo_30,Ground station 1,10,2023-06-02 13:14:00,2023-06-02 13:17:00,180,24,24
WDLeo_16,Ground station 1,13,2023-06-02 13:19:00,2023-06-02 13:30:00,660,24,24
WDLeo_29,Ground station 1,10,2023-06-02 13:25:00,2023-06-02 13:30:00,300,24,24
WDLeo_22,Ground station 1,12,2023-06-02 13:27:00,2023-06-02 13:33:00,360,24,24
WDLeo_15,Ground station 1,13,2023-06-02 13:31:00,2023-06-02 13:43:00,720,24,24
WDLeo_28,Ground station 1,10,2023-06-02 13:36:00,2023-06-02 13:43:00,420,24,24
WDLeo_21,Ground station 1,12,2023-06-02 13:40:00,2023-06-02 13:46:00,360,24,24
WDLeo_14,Ground station 1,15,2023-06-02 13:44:00,2023-06-02 13:55:00,660,24,24
WDLeo_27,Ground station 1,11,2023-06-02 13:48:00,2023-06-02 13:56:00,480,24,24
WDLeo_20,Ground station 1,12,2023-06-02 13:53:00,2023-06-02 13:58:00,300,24,24
WDLeo_13,Ground station 1,15,2023-06-02 13:56:00,2023-06-02 14:08:00,720,24,24
WDLeo_26,Ground station 1,11,2023-06-02 14:00:00,2023-06-02 14:09:00,540,24,24
WDLeo_19,Ground station 1,12,2023-06-02 14:06:00,2023-06-02 14:11:00,300,24,24
WDLeo_12,Ground station 1,15,2023-06-02 14:09:00,2023-06-02 14:20:00,660,24,25
WDLeo_25,Ground station 1,9,2023-06-02 14:12:00,2023-06-02 14:22:00,600,24,25
WDLeo_18,Ground station 1,12,2023-06-02 14:19:00,2023-06-02 14:23:00,240,25,25
WDLeo_11,Ground station 1,15,2023-06-02 14:21:00,2023-06-02 14:33:00,720,25,25
WDLeo_32,Ground station 1,9,2023-06-02 14:24:00,2023-06-02 14:35:00,660,25,25
WDLeo_17,Ground station 1,11,2023-06-02 14:32:00,2023-06-02 14:36:00,240,25,25
WDLeo_10,Ground station 1,15,2023-06-02 14:34:00,2023-06-02 14:45:00,660,25,25
WDLeo_31,Ground station 1,9,2023-06-02 14:36:00,2023-06-02 14:47:00,660,25,25
WDLeo_24,Ground station 1,11,2023-06-02 14:45:00,2023-06-02 14:48:00,180,25,25
WDLeo_9,Ground station 1,14,2023-06-02 14:46:00,2023-06-02 14:57:00,660,25,25
WDLeo_30,Ground station 1,11,2023-06-02 14:48:00,2023-06-02 15:00:00,720,25,25
WDLeo_23,Ground station 1,11,2023-06-02 14:58:00,2023-06-02 15:01:00,180,25,25
WDLeo_16,Ground station 1,14,2023-06-02 14:59:00,2023-06-02 15:10:00,660,25,25
WDLeo_29,Ground station 1,11,2023-06-02 15:01:00,2023-06-02 15:12:00,660,25,25
WDLeo_22,Ground station 1,13,2023-06-02 15:10:00,2023-06-02 15:14:00,240,25,25
WDLeo_15,Ground station 1,14,2023-06-02 15:11:00,2023-06-02 15:22:00,660,25,25
WDLeo_28,Ground station 1,11,2023-06-02 15:13:00,2023-06-02 15:25:00,720,25,25
WDLeo_21,Ground station 1,13,2023-06-02 15:23:00,2023-06-02 15:27:00,240,25,25
WDLeo_14,Ground station 1,16,2023-06-02 15:24:00,2023-06-02 15:34:00,600,25,25
WDLeo_27,Ground station 1,12,2023-06-02 15:25:00,2023-06-02 15:37:00,720,25,25
WDLeo_20,Ground station 1,13,2023-06-02 15:35:00,2023-06-02 15:40:00,300,25,25
WDLeo_13,Ground station 1,16,2023-06-02 15:37:00,2023-06-02 15:46:00,540,25,25
WDLeo_26,Ground station 1,12,2023-06-02 15:38:00,2023-06-02 15:50:00,720,25,25
WDLeo_19,Ground station 1,13,2023-06-02 15:48:00,2023-06-02 15:53:00,300,25,26
WDLeo_12,Ground station 1,16,2023-06-02 15:50:00,2023-06-02 15:57:00,420,25,26
WDLeo_25,Ground station 1,10,2023-06-02 15:50:00,2023-06-02 16:02:00,720,25,26
WDLeo_18,Ground station 1,13,2023-06-02 16:00:00,2023-06-02 16:06:00,360,26,26
WDLeo_11,Ground station 1,16,2023-06-02 16:03:00,2023-06-02 16:09:00,360,26,26
WDLeo_32,Ground station 1,10,2023-06-02 16:03:00,2023-06-02 16:14:00,660,26,26
WDLeo_17,Ground station 1,12,2023-06-02 16:12:00,2023-06-02 16:19:00,420,26,26
WDLeo_10,Ground station 1,16,2023-06-02 16:16:00,2023-06-02 16:20:00,240,26,26
WDLeo_31,Ground station 1,10,2023-06-02 16:16:00,2023-06-02 16:27:00,660,26,26
WDLeo_24,Ground station 1,12,2023-06-02 16:25:00,2023-06-02 16:32:00,420,26,26
WDLeo_30,Ground station 1,12,2023-06-02 16:28:00,2023-06-02 16:39:00,660,26,26
WDLeo_23,Ground station 1,12,2023-06-02 16:37:00,2023-06-02 16:45:00,480,26,26
WDLeo_29,Ground station 1,12,2023-06-02 16:41:00,2023-06-02 16:51:00,600,26,26
WDLeo_22,Ground station 1,14,2023-06-02 16:49:00,2023-06-02 16:58:00,540,26,26
WDLeo_28,Ground station 1,12,2023-06-02 16:54:00,2023-06-02 17:04:00,600,26,26
WDLeo_21,Ground station 1,14,2023-06-02 17:02:00,2023-06-02 17:11:00,540,26,26
WDLeo_27,Ground station 1,13,2023-06-02 17:07:00,2023-06-02 17:16:00,540,26,26
WDLeo_20,Ground station 1,14,2023-06-02 17:14:00,2023-06-02 17:24:00,600,26,26
WDLeo_26,Ground station 1,13,2023-06-02 17:20:00,2023-06-02 17:28:00,480,26,27
WDLeo_19,Ground station 1,14,2023-06-02 17:26:00,2023-06-02 17:37:00,660,26,27
WDLeo_25,Ground station 1,11,2023-06-02 17:32:00,2023-06-02 17:41:00,540,27,27
WDLeo_18,Ground station 1,14,2023-06-02 17:39:00,2023-06-02 17:49:00,600,27,27
WDLeo_32,Ground station 1,11,2023-06-02 17:45:00,2023-06-02 17:53:00,480,27,27
WDLeo_17,Ground station 1,13,2023-06-02 17:51:00,2023-06-02 18:02:00,660,27,27
WDLeo_31,Ground station 1,11,2023-06-02 17:58:00,2023-06-02 18:05:00,420,27,27
WDLeo_38,Ground station 1,13,2023-06-02 17:59:00,2023-06-02 18:01:00,120,27,27
WDLeo_24,Ground station 1,13,2023-06-02 18:03:00,2023-06-02 18:15:00,720,27,27
WDLeo_37,Ground station 1,13,2023-06-02 18:09:00,2023-06-02 18:15:00,360,27,27
WDLeo_30,Ground station 1,13,2023-06-02 18:11:00,2023-06-02 18:18:00,420,27,27
WDLeo_23,Ground station 1,13,2023-06-02 18:16:00,2023-06-02 18:27:00,660,27,27
WDLeo_36,Ground station 1,13,2023-06-02 18:21:00,2023-06-02 18:28:00,420,27,27
WDLeo_29,Ground station 1,13,2023-06-02 18:24:00,2023-06-02 18:30:00,360,27,27
WDLeo_22,Ground station 1,15,2023-06-02 18:28:00,2023-06-02 18:40:00,720,27,27
WDLeo_35,Ground station 1,13,2023-06-02 18:32:00,2023-06-02 18:41:00,540,27,27
WDLeo_28,Ground station 1,13,2023-06-02 18:37:00,2023-06-02 18:43:00,360,27,27
WDLeo_21,Ground station 1,15,2023-06-02 18:41:00,2023-06-02 18:52:00,660,27,27
WDLeo_34,Ground station 1,14,2023-06-02 18:44:00,2023-06-02 18:54:00,600,27,27
WDLeo_27,Ground station 1,14,2023-06-02 18:51:00,2023-06-02 18:55:00,240,27,27
WDLeo_20,Ground station 1,15,2023-06-02 18:53:00,2023-06-02 19:05:00,720,27,28
WDLeo_33,Ground station 1,14,2023-06-02 18:56:00,2023-06-02 19:06:00,600,27,28
WDLeo_26,Ground station 1,14,2023-06-02 19:04:00,2023-06-02 19:07:00,180,28,28
WDLeo_19,Ground station 1,15,2023-06-02 19:06:00,2023-06-02 19:17:00,660,28,28
WDLeo_40,Ground station 1,12,2023-06-02 19:08:00,2023-06-02 19:19:00,660,28,28
WDLeo_25,Ground station 1,12,2023-06-02 19:16:00,2023-06-02 19:20:00,240,28,28
WDLeo_18,Ground station 1,15,2023-06-02 19:18:00,2023-06-02 19:30:00,720,28,28
WDLeo_39,Ground station 1,12,2023-06-02 19:20:00,2023-06-02 19:32:00,720,28,28
WDLeo_32,Ground station 1,12,2023-06-02 19:29:00,2023-06-02 19:33:00,240,28,28
WDLeo_17,Ground station 1,14,2023-06-02 19:31:00,2023-06-02 19:42:00,660,28,28
WDLeo_38,Ground station 1,14,2023-06-02 19:33:00,2023-06-02 19:44:00,660,28,28
WDLeo_31,Ground station 1,12,2023-06-02 19:42:00,2023-06-02 19:45:00,180,28,28
WDLeo_24,Ground station 1,14,2023-06-02 19:43:00,2023-06-02 19:54:00,660,28,28
WDLeo_37,Ground station 1,14,2023-06-02 19:45:00,2023-06-02 19:57:00,720,28,28
WDLeo_30,Ground station 1,14,2023-06-02 19:55:00,2023-06-02 19:58:00,180,28,28
WDLeo_23,Ground station 1,14,2023-06-02 19:56:00,2023-06-02 20:06:00,600,28,28
WDLeo_36,Ground station 1,14,2023-06-02 19:57:00,2023-06-02 20:09:00,720,28,28
WDLeo_29,Ground station 1,14,2023-06-02 20:07:00,2023-06-02 20:11:00,240,28,28
WDLeo_22,Ground station 1,16,2023-06-02 20:08:00,2023-06-02 20:18:00,600,28,28
WDLeo_35,Ground station 1,14,2023-06-02 20:10:00,2023-06-02 20:22:00,720,28,28
WDLeo_28,Ground station 1,14,2023-06-02 20:20:00,2023-06-02 20:24:00,240,28,28
WDLeo_21,Ground station 1,16,2023-06-02 20:21:00,2023-06-02 20:30:00,540,28,28
WDLeo_34,Ground station 1,15,2023-06-02 20:22:00,2023-06-02 20:34:00,720,28,28
WDLeo_27,Ground station 1,15,2023-06-02 20:32:00,2023-06-02 20:37:00,300,28,28
WDLeo_20,Ground station 1,16,2023-06-02 20:34:00,2023-06-02 20:42:00,480,28,29
WDLeo_33,Ground station 1,15,2023-06-02 20:35:00,2023-06-02 20:46:00,660,28,29
WDLeo_26,Ground station 1,15,2023-06-02 20:45:00,2023-06-02 20:50:00,300,29,29
WDLeo_19,Ground station 1,16,2023-06-02 20:47:00,2023-06-02 20:54:00,420,29,29
WDLeo_40,Ground station 1,13,2023-06-02 20:47:00,2023-06-02 20:59:00,720,29,29
WDLeo_25,Ground station 1,13,2023-06-02 20:57:00,2023-06-02 21:03:00,360,29,29
WDLeo_18,Ground station 1,16,2023-06-02 21:00:00,2023-06-02 21:05:00,300,29,29
WDLeo_39,Ground station 1,13,2023-06-02 21:00:00,2023-06-02 21:11:00,660,29,29
WDLeo_32,Ground station 1,13,2023-06-02 21:09:00,2023-06-02 21:16:00,420,29,29
WDLeo_38,Ground station 1,15,2023-06-02 21:13:00,2023-06-02 21:23:00,600,29,29
WDLeo_31,Ground station 1,13,2023-06-02 21:22:00,2023-06-02 21:29:00,420,29,29
WDLeo_37,Ground station 1,15,2023-06-02 21:25:00,2023-06-02 21:36:00,660,29,29
WDLeo_30,Ground station 1,15,2023-06-02 21:34:00,2023-06-02 21:42:00,480,29,29
WDLeo_36,Ground station 1,15,2023-06-02 21:38:00,2023-06-02 21:48:00,600,29,29
WDLeo_29,Ground station 1,15,2023-06-02 21:46:00,2023-06-02 21:55:00,540,29,29
WDLeo_35,Ground station 1,15,2023-06-02 21:51:00,2023-06-02 22:00:00,540,29,29
WDLeo_28,Ground station 1,15,2023-06-02 21:59:00,2023-06-02 22:08:00,540,29,29
WDLeo_34,Ground station 1,16,2023-06-02 22:04:00,2023-06-02 22:13:00,540,29,29
WDLeo_27,Ground station 1,16,2023-06-02 22:11:00,2023-06-02 22:21:00,600,29,30
WDLeo_33,Ground station 1,16,2023-06-02 22:17:00,2023-06-02 22:25:00,480,30,30
WDLeo_26,Ground station 1,16,2023-06-02 22:23:00,2023-06-02 22:34:00,660,30,30
WDLeo_40,Ground station 1,14,2023-06-02 22:30:00,2023-06-02 22:37:00,420,30,30
WDLeo_25,Ground station 1,14,2023-06-02 22:36:00,2023-06-02 22:46:00,600,30,30
WDLeo_39,Ground station 1,14,2023-06-02 22:43:00,2023-06-02 22:50:00,420,30,30
WDLeo_32,Ground station 1,14,2023-06-02 22:48:00,2023-06-02 22:59:00,660,30,30
WDLeo_6,Ground station 1,16,2023-06-02 22:54:00,2023-06-02 22:59:00,300,30,30
WDLeo_38,Ground station 1,16,2023-06-02 22:56:00,2023-06-02 23:02:00,360,30,30
WDLeo_31,Ground station 1,14,2023-06-02 23:00:00,2023-06-02 23:12:00,720,30,30
WDLeo_5,Ground station 1,16,2023-06-02 23:05:00,2023-06-02 23:12:00,420,30,30
WDLeo_37,Ground station 1,16,2023-06-02 23:09:00,2023-06-02 23:15:00,360,30,30
WDLeo_30,Ground station 1,16,2023-06-02 23:13:00,2023-06-02 23:24:00,660,30,30
WDLeo_4,Ground station 1,16,2023-06-02 23:17:00,2023-06-02 23:25:00,480,30,30
WDLeo_36,Ground station 1,16,2023-06-02 23:22:00,2023-06-02 23:27:00,300,30,30
WDLeo_29,Ground station 1,16,2023-06-02 23:25:00,2023-06-02 23:37:00,720,30,30
WDLeo_3,Ground station 1,16,2023-06-02 23:29:00,2023-06-02 23:38:00,540,30,30
WDLeo_35,Ground station 1,16,2023-06-02 23:35:00,2023-06-02 23:39:00,240,30,30
WDLeo_28,Ground station 1,16,2023-06-02 23:38:00,2023-06-02 23:49:00,660,30,30
WDLeo_2,Ground station 1,17,2023-06-02 23:41:00,2023-06-02 23:51:00,600,30,31
WDLeo_34,Ground station 1,17,2023-06-02 23:48:00,2023-06-02 23:52:00,240,30,31
WDLeo_27,Ground station 1,17,2023-06-02 23:50:00,2023-06-03 00:02:00,720,31,31
WDLeo_1,Ground station 1,15,2023-06-02 23:53:00,2023-06-03 00:03:00,600,31,31
WDLeo_33,Ground station 1,17,2023-06-03 00:01:00,2023-06-03 00:04:00,180,31,31
WDLeo_26,Ground station 1,17,2023-06-03 00:02:00,2023-06-03 00:14:00,720,31,31
WDLeo_8,Ground station 1,15,2023-06-03 00:05:00,2023-06-03 00:16:00,660,31,31
WDLeo_40,Ground station 1,15,2023-06-03 00:14:00,2023-06-03 00:17:00,180,31,31
WDLeo_25,Ground station 1,15,2023-06-03 00:15:00,2023-06-03 00:26:00,660,31,31
WDLeo_7,Ground station 1,16,2023-06-03 00:17:00,2023-06-03 00:28:00,660,31,31
WDLeo_39,Ground station 1,15,2023-06-03 00:26:00,2023-06-03 00:30:00,240,31,31
WDLeo_32,Ground station 1,15,2023-06-03 00:28:00,2023-06-03 00:39:00,660,31,31
WDLeo_6,Ground station 1,17,2023-06-03 00:29:00,2023-06-03 00:41:00,720,31,31
WDLeo_38,Ground station 1,17,2023-06-03 00:39:00,2023-06-03 00:43:00,240,31,31
WDLeo_31,Ground station 1,15,2023-06-03 00:40:00,2023-06-03 00:51:00,660,31,31
WDLeo_5,Ground station 1,17,2023-06-03 00:42:00,2023-06-03 00:53:00,660,31,31
WDLeo_37,Ground station 1,17,2023-06-03 00:52:00,2023-06-03 00:56:00,240,31,31
WDLeo_30,Ground station 1,17,2023-06-03 00:53:00,2023-06-03 01:03:00,600,31,31
WDLeo_4,Ground station 1,17,2023-06-03 00:54:00,2023-06-03 01:06:00,720,31,31
WDLeo_36,Ground station 1,17,2023-06-03 01:04:00,2023-06-03 01:09:00,300,31,31
WDLeo_29,Ground station 1,17,2023-06-03 01:06:00,2023-06-03 01:15:00,540,31,31
WDLeo_3,Ground station 1,17,2023-06-03 01:07:00,2023-06-03 01:18:00,660,31,31
WDLeo_35,Ground station 1,17,2023-06-03 01:17:00,2023-06-03 01:22:00,300,31,31
WDLeo_28,Ground station 1,17,2023-06-03 01:18:00,2023-06-03 01:27:00,540,31,32
WDLeo_2,Ground station 1,18,2023-06-03 01:19:00,2023-06-03 01:31:00,720,31,32
WDLeo_34,Ground station 1,18,2023-06-03 01:29:00,2023-06-03 01:35:00,360,32,32
WDLeo_27,Ground station 1,18,2023-06-03 01:31:00,2023-06-03 01:38:00,420,32,32
WDLeo_1,Ground station 1,16,2023-06-03 01:32:00,2023-06-03 01:43:00,660,32,32
WDLeo_33,Ground station 1,18,2023-06-03 01:41:00,2023-06-03 01:48:00,420,32,32
WDLeo_8,Ground station 1,16,2023-06-03 01:44:00,2023-06-03 01:56:00,720,32,32
WDLeo_26,Ground station 1,18,2023-06-03 01:45:00,2023-06-03 01:50:00,300,32,32
WDLeo_40,Ground station 1,16,2023-06-03 01:54:00,2023-06-03 02:01:00,420,32,32
WDLeo_7,Ground station 1,17,2023-06-03 01:57:00,2023-06-03 02:08:00,660,32,32
WDLeo_25,Ground station 1,16,2023-06-03 01:59:00,2023-06-03 02:00:00,60,32,32
WDLeo_39,Ground station 1,16,2023-06-03 02:06:00,2023-06-03 02:14:00,480,32,32
WDLeo_6,Ground station 1,18,2023-06-03 02:10:00,2023-06-03 02:20:00,600,32,32
WDLeo_38,Ground station 1,18,2023-06-03 02:18:00,2023-06-03 02:27:00,540,32,32
WDLeo_5,Ground station 1,18,2023-06-03 02:22:00,2023-06-03 02:33:00,660,32,32
WDLeo_37,Ground station 1,18,2023-06-03 02:31:00,2023-06-03 02:40:00,540,32,32
WDLeo_4,Ground station 1,18,2023-06-03 02:35:00,2023-06-03 02:45:00,600,32,32
WDLeo_36,Ground station 1,18,2023-06-03 02:43:00,2023-06-03 02:52:00,540,32,32
WDLeo_3,Ground station 1,18,2023-06-03 02:48:00,2023-06-03 02:57:00,540,32,32
WDLeo_35,Ground station 1,18,2023-06-03 02:55:00,2023-06-03 03:05:00,600,32,33
WDLeo_2,Ground station 1,19,2023-06-03 03:01:00,2023-06-03 03:10:00,540,33,33
WDLeo_34,Ground station 1,19,2023-06-03 03:08:00,2023-06-03 03:18:00,600,33,33
WDLeo_1,Ground station 1,17,2023-06-03 03:14:00,2023-06-03 03:22:00,480,33,33
WDLeo_33,Ground station 1,19,2023-06-03 03:20:00,2023-06-03 03:31:00,660,33,33
WDLeo_8,Ground station 1,17,2023-06-03 03:27:00,2023-06-03 03:34:00,420,33,33
WDLeo_40,Ground station 1,17,2023-06-03 03:32:00,2023-06-03 03:44:00,720,33,33
WDLeo_14,Ground station 1,17,2023-06-03 03:39:00,2023-06-03 03:43:00,240,33,33
WDLeo_7,Ground station 1,18,2023-06-03 03:40:00,2023-06-03 03:47:00,420,33,33
WDLeo_39,Ground station 1,17,2023-06-03 03:45:00,2023-06-03 03:56:00,660,33,33
WDLeo_13,Ground station 1,17,2023-06-03 03:50:00,2023-06-03 03:56:00,360,33,33
WDLeo_6,Ground station 1,19,2023-06-03 03:53:00,2023-06-03 03:59:00,360,33,33
WDLeo_38,Ground station 1,19,2023-06-03 03:57:00,2023-06-03 04:09:00,720,33,33
WDLeo_12,Ground station 1,17,2023-06-03 04:02:00,2023-06-03 04:09:00,420,33,33
WDLeo_5,Ground station 1,19,2023-06-03 04:06:00,2023-06-03 04:11:00,300,33,33
WDLeo_37,Ground station 1,19,2023-06-03 04:10:00,2023-06-03 04:21:00,660,33,33
WDLeo_11,Ground station 1,17,2023-06-03 04:13:00,2023-06-03 04:22:00,540,33,33
WDLeo_4,Ground station 1,19,2023-06-03 04:19:00,2023-06-03 04:24:00,300,33,33
WDLeo_36,Ground station 1,19,2023-06-03 04:22:00,2023-06-03 04:34:00,720,33,33
WDLeo_10,Ground station 1,17,2023-06-03 04:25:00,2023-06-03 04:35:00,600,33,33
WDLeo_3,Ground station 1,19,2023-06-03 04:32:00,2023-06-03 04:36:00,240,33,33
WDLeo_35,Ground station 1,19,2023-06-03 04:34:00,2023-06-03 04:46:00,720,33,34
WDLeo_9,Ground station 1,15,2023-06-03 04:37:00,2023-06-03 04:48:00,660,34,34
WDLeo_2,Ground station 1,20,2023-06-03 04:45:00,2023-06-03 04:49:00,240,34,34
WDLeo_34,Ground station 1,20,2023-06-03 04:47:00,2023-06-03 04:59:00,720,34,34
WDLeo_16,Ground station 1,15,2023-06-03 04:49:00,2023-06-03 05:00:00,660,34,34
WDLeo_1,Ground station 1,18,2023-06-03 04:58:00,2023-06-03 05:01:00,180,34,34
WDLeo_33,Ground station 1,20,2023-06-03 04:59:00,2023-06-03 05:11:00,720,34,34
WDLeo_15,Ground station 1,15,2023-06-03 05:02:00,2023-06-03 05:13:00,660,34,34
WDLeo_8,Ground station 1,18,2023-06-03 05:11:00,2023-06-03 05:14:00,180,34,34
WDLeo_40,Ground station 1,18,2023-06-03 05:12:00,2023-06-03 05:23:00,660,34,34
WDLeo_14,Ground station 1,18,2023-06-03 05:14:00,2023-06-03 05:25:00,660,34,34
WDLeo_7,Ground station 1,19,2023-06-03 05:23:00,2023-06-03 05:27:00,240,34,34
WDLeo_39,Ground station 1,18,2023-06-03 05:25:00,2023-06-03 05:35:00,600,34,34
WDLeo_13,Ground station 1,18,2023-06-03 05:26:00,2023-06-03 05:38:00,720,34,34
WDLeo_6,Ground station 1,20,2023-06-03 05:36:00,2023-06-03 05:40:00,240,34,34
WDLeo_38,Ground station 1,20,2023-06-03 05:37:00,2023-06-03 05:47:00,600,34,34
WDLeo_12,Ground station 1,18,2023-06-03 05:39:00,2023-06-03 05:50:00,660,34,34
WDLeo_5,Ground station 1,20,2023-06-03 05:48:00,2023-06-03 05:53:00,300,34,34
WDLeo_37,Ground station 1,20,2023-06-03 05:50:00,2023-06-03 05:59:00,540,34,34
WDLeo_11,Ground station 1,18,2023-06-03 05:51:00,2023-06-03 06:03:00,720,34,34
WDLeo_4,Ground station 1,20,2023-06-03 06:01:00,2023-06-03 06:06:00,300,34,34
WDLeo_36,Ground station 1,20,2023-06-03 06:03:00,2023-06-03 06:11:00,480,34,34
WDLeo_10,Ground station 1,18,2023-06-03 06:04:00,2023-06-03 06:15:00,660,34,35
WDLeo_3,Ground station 1,20,2023-06-03 06:13:00,2023-06-03 06:19:00,360,35,35
WDLeo_9,Ground station 1,16,2023-06-03 06:16:00,2023-06-03 06:28:00,720,35,35
WDLeo_35,Ground station 1,20,2023-06-03 06:16:00,2023-06-03 06:23:00,420,35,35
WDLeo_2,Ground station 1,21,2023-06-03 06:26:00,2023-06-03 06:32:00,360,35,35
WDLeo_16,Ground station 1,16,2023-06-03 06:29:00,2023-06-03 06:40:00,660,35,35
WDLeo_34,Ground station 1,21,2023-06-03 06:29:00,2023-06-03 06:34:00,300,35,35
WDLeo_1,Ground station 1,19,2023-06-03 06:38:00,2023-06-03 06:45:00,420,35,35
WDLeo_15,Ground station 1,16,2023-06-03 06:41:00,2023-06-03 06:52:00,660,35,35
WDLeo_33,Ground station 1,21,2023-06-03 06:43:00,2023-06-03 06:45:00,120,35,35
WDLeo_8,Ground station 1,19,2023-06-03 06:50:00,2023-06-03 06:58:00,480,35,35
WDLeo_14,Ground station 1,19,2023-06-03 06:54:00,2023-06-03 07:05:00,660,35,35
WDLeo_7,Ground station 1,20,2023-06-03 07:03:00,2023-06-03 07:11:00,480,35,35
WDLeo_13,Ground station 1,19,2023-06-03 07:07:00,2023-06-03 07:17:00,600,35,35
WDLeo_6,Ground station 1,21,2023-06-03 07:15:00,2023-06-03 07:24:00,540,35,35
WDLeo_12,Ground station 1,19,2023-06-03 07:20:00,2023-06-03 07:29:00,540,35,35
WDLeo_5,Ground station 1,21,2023-06-03 07:27:00,2023-06-03 07:37:00,600,35,35
WDLeo_11,Ground station 1,19,2023-06-03 07:33:00,2023-06-03 07:42:00,540,35,35
WDLeo_4,Ground station 1,21,2023-06-03 07:40:00,2023-06-03 07:50:00,600,35,36
WDLeo_10,Ground station 1,19,2023-06-03 07:45:00,2023-06-03 07:54:00,540,35,36
WDLeo_3,Ground station 1,21,2023-06-03 07:52:00,2023-06-03 08:02:00,600,36,36
WDLeo_9,Ground station 1,17,2023-06-03 07:58:00,2023-06-03 08:07:00,540,36,36
WDLeo_2,Ground station 1,22,2023-06-03 08:04:00,2023-06-03 08:15:00,660,36,36
WDLeo_16,Ground station 1,17,2023-06-03 08:11:00,2023-06-03 08:19:00,480,36,36
WDLeo_1,Ground station 1,20,2023-06-03 08:17:00,2023-06-03 08:28:00,660,36,36
WDLeo_15,Ground station 1,17,2023-06-03 08:24:00,2023-06-03 08:31:00,420,36,36
WDLeo_22,Ground station 1,17,2023-06-03 08:24:00,2023-06-03 08:27:00,180,36,36
WDLeo_8,Ground station 1,20,2023-06-03 08:29:00,2023-06-03 08:41:00,720,36,36
WDLeo_21,Ground station 1,17,2023-06-03 08:35:00,2023-06-03 08:41:00,360,36,36
WDLeo_14,Ground station 1,20,2023-06-03 08:37:00,2023-06-03 08:44:00,420,36,36
WDLeo_7,Ground station 1,21,2023-06-03 08:42:00,2023-06-03 08:53:00,660,36,36
WDLeo_20,Ground station 1,17,2023-06-03 08:46:00,2023-06-03 08:54:00,480,36,36
WDLeo_13,Ground station 1,20,2023-06-03 08:50:00,2023-06-03 08:56:00,360,36,36
WDLeo_6,Ground station 1,22,2023-06-03 08:54:00,2023-06-03 09:06:00,720,36,36
WDLeo_19,Ground station 1,17,2023-06-03 08:58:00,2023-06-03 09:07:00,540,36,36
WDLeo_12,Ground station 1,20,2023-06-03 09:03:00,2023-06-03 09:08:00,300,36,36
WDLeo_5,Ground station 1,22,2023-06-03 09:06:00,2023-06-03 09:18:00,720,36,36
WDLeo_18,Ground station 1,17,2023-06-03 09:10:00,2023-06-03 09:19:00,540,36,36
WDLeo_11,Ground station 1,20,2023-06-03 09:16:00,2023-06-03 09:21:00,300,36,36
WDLeo_4,Ground station 1,22,2023-06-03 09:19:00,2023-06-03 09:31:00,720,36,37
WDLeo_17,Ground station 1,15,2023-06-03 09:22:00,2023-06-03 09:32:00,600,36,37
WDLeo_10,Ground station 1,20,2023-06-03 09:29:00,2023-06-03 09:33:00,240,37,37
WDLeo_3,Ground station 1,22,2023-06-03 09:31:00,2023-06-03 09:43:00,720,37,37
WDLeo_24,Ground station 1,15,2023-06-03 09:34:00,2023-06-03 09:45:00,660,37,37
WDLeo_9,Ground station 1,18,2023-06-03 09:42:00,2023-06-03 09:46:00,240,37,37
WDLeo_2,Ground station 1,23,2023-06-03 09:44:00,2023-06-03 09:55:00,660,37,37
WDLeo_23,Ground station 1,15,2023-06-03 09:46:00,2023-06-03 09:57:00,660,37,37
WDLeo_16,Ground station 1,18,2023-06-03 09:55:00,2023-06-03 09:59:00,240,37,37
WDLeo_1,Ground station 1,21,2023-06-03 09:56:00,2023-06-03 10:08:00,720,37,37
WDLeo_22,Ground station 1,18,2023-06-03 09:58:00,2023-06-03 10:10:00,720,37,37
WDLeo_15,Ground station 1,18,2023-06-03 10:08:00,2023-06-03 10:12:00,240,37,37
WDLeo_8,Ground station 1,21,2023-06-03 10:09:00,2023-06-03 10:20:00,660,37,37
WDLeo_21,Ground station 1,18,2023-06-03 10:11:00,2023-06-03 10:22:00,660,37,37
WDLeo_14,Ground station 1,21,2023-06-03 10:20:00,2023-06-03 10:24:00,240,37,37
WDLeo_7,Ground station 1,22,2023-06-03 10:22:00,2023-06-03 10:32:00,600,37,37
WDLeo_20,Ground station 1,18,2023-06-03 10:23:00,2023-06-03 10:35:00,720,37,37
WDLeo_13,Ground station 1,21,2023-06-03 10:33:00,2023-06-03 10:37:00,240,37,37
WDLeo_6,Ground station 1,23,2023-06-03 10:34:00,2023-06-03 10:44:00,600,37,37
WDLeo_19,Ground station 1,18,2023-06-03 10:36:00,2023-06-03 10:47:00,660,37,37
WDLeo_12,Ground station 1,21,2023-06-03 10:45:00,2023-06-03 10:50:00,300,37,37
WDLeo_5,Ground station 1,23,2023-06-03 10:47:00,2023-06-03 10:56:00,540,37,37
WDLeo_18,Ground station 1,18,2023-06-03 10:48:00,2023-06-03 11:00:00,720,37,38
WDLeo_11,Ground station 1,21,2023-06-03 10:58:00,2023-06-03 11:03:00,300,37,38
WDLeo_4,Ground station 1,23,2023-06-03 11:00:00,2023-06-03 11:07:00,420,38,38
WDLeo_17,Ground station 1,16,2023-06-03 11:01:00,2023-06-03 11:12:00,660,38,38
WDLeo_10,Ground station 1,21,2023-06-03 11:10:00,2023-06-03 11:16:00,360,38,38
WDLeo_3,Ground station 1,23,2023-06-03 11:13:00,2023-06-03 11:19:00,360,38,38
WDLeo_24,Ground station 1,16,2023-06-03 11:13:00,2023-06-03 11:25:00,720,38,38
WDLeo_9,Ground station 1,19,2023-06-03 11:23:00,2023-06-03 11:29:00,360,38,38
WDLeo_23,Ground station 1,16,2023-06-03 11:26:00,2023-06-03 11:37:00,660,38,38
WDLeo_2,Ground station 1,24,2023-06-03 11:27:00,2023-06-03 11:30:00,180,38,38
WDLeo_16,Ground station 1,19,2023-06-03 11:35:00,2023-06-03 11:42:00,420,38,38
