orbit/sort_EndTime_SH_550km_5PLAN_20SAT_60days.csv

Source,Target,IntervalNumber,StartTime,EndTime,Duration,StartOrbit,EndOrbit
WDLeo_14,Ground station 1,1,2023-06-01 00:00:00,2023-06-01 00:05:00,300,1,1
WDLeo_17,Ground station 1,1,2023-06-01 00:01:00,2023-06-01 00:05:00,240,1,1
WDLeo_1,Ground station 1,1,2023-06-01 00:03:00,2023-06-01 00:14:00,660,1,1
WDLeo_13,Ground station 1,1,2023-06-01 00:18:00,2023-06-01 00:30:00,720,1,1
WDLeo_20,Ground station 1,1,2023-06-01 00:27:00,2023-06-01 00:30:00,180,1,1
WDLeo_4,Ground station 1,1,2023-06-01 00:28:00,2023-06-01 00:39:00,660,1,1
WDLeo_16,Ground station 1,1,2023-06-01 00:43:00,2023-06-01 00:54:00,660,1,1
WDLeo_19,Ground station 1,1,2023-06-01 00:52:00,2023-06-01 00:56:00,240,1,1
WDLeo_3,Ground station 1,1,2023-06-01 00:52:00,2023-06-01 01:04:00,720,1,1
WDLeo_15,Ground station 1,1,2023-06-01 01:09:00,2023-06-01 01:18:00,540,1,1
WDLeo_18,Ground station 1,1,2023-06-01 01:17:00,2023-06-01 01:22:00,300,1,1
WDLeo_2,Ground station 1,1,2023-06-01 01:17:00,2023-06-01 01:29:00,720,1,1
WDLeo_14,Ground station 1,2,2023-06-01 01:34:00,2023-06-01 01:42:00,480,1,2
WDLeo_17,Ground station 1,2,2023-06-01 01:42:00,2023-06-01 01:48:00,360,2,2
WDLeo_1,Ground station 1,2,2023-06-01 01:42:00,2023-06-01 01:54:00,720,2,2
WDLeo_13,Ground station 1,2,2023-06-01 02:01:00,2023-06-01 02:04:00,180,2,2
WDLeo_20,Ground station 1,2,2023-06-01 02:07:00,2023-06-01 02:14:00,420,2,2
WDLeo_4,Ground station 1,2,2023-06-01 02:08:00,2023-06-01 02:19:00,660,2,2
WDLeo_19,Ground station 1,2,2023-06-01 02:31:00,2023-06-01 02:40:00,540,2,2
WDLeo_3,Ground station 1,2,2023-06-01 02:33:00,2023-06-01 02:43:00,600,2,2
WDLeo_18,Ground station 1,2,2023-06-01 02:56:00,2023-06-01 03:06:00,600,2,2
WDLeo_2,Ground station 1,2,2023-06-01 02:59:00,2023-06-01 03:08:00,540,2,2
WDLeo_17,Ground station 1,3,2023-06-01 03:21:00,2023-06-01 03:31:00,600,3,3
WDLeo_1,Ground station 1,3,2023-06-01 03:25:00,2023-06-01 03:33:00,480,3,3
WDLeo_4,Ground station 1,3,2023-06-01 03:51:00,2023-06-01 03:57:00,360,3,3
WDLeo_20,Ground station 1,3,2023-06-01 03:45:00,2023-06-01 03:57:00,720,3,3
WDLeo_7,Ground station 1,1,2023-06-01 03:58:00,2023-06-01 04:04:00,360,3,3
WDLeo_3,Ground station 1,3,2023-06-01 04:17:00,2023-06-01 04:22:00,300,3,3
WDLeo_19,Ground station 1,3,2023-06-01 04:10:00,2023-06-01 04:22:00,720,3,3
WDLeo_6,Ground station 1,1,2023-06-01 04:21:00,2023-06-01 04:30:00,540,3,3
WDLeo_2,Ground station 1,3,2023-06-01 04:43:00,2023-06-01 04:47:00,240,3,4
WDLeo_18,Ground station 1,3,2023-06-01 04:35:00,2023-06-01 04:47:00,720,3,4
WDLeo_5,Ground station 1,1,2023-06-01 04:45:00,2023-06-01 04:56:00,660,3,4
WDLeo_1,Ground station 1,4,2023-06-01 05:09:00,2023-06-01 05:12:00,180,4,4
WDLeo_17,Ground station 1,4,2023-06-01 05:00:00,2023-06-01 05:12:00,720,4,4
WDLeo_8,Ground station 1,1,2023-06-01 05:10:00,2023-06-01 05:21:00,660,4,4
WDLeo_20,Ground station 1,4,2023-06-01 05:25:00,2023-06-01 05:36:00,660,4,4
WDLeo_4,Ground station 1,4,2023-06-01 05:34:00,2023-06-01 05:38:00,240,4,4
WDLeo_7,Ground station 1,2,2023-06-01 05:34:00,2023-06-01 05:46:00,720,4,4
WDLeo_19,Ground station 1,4,2023-06-01 05:50:00,2023-06-01 06:00:00,600,4,4
WDLeo_3,Ground station 1,4,2023-06-01 05:59:00,2023-06-01 06:04:00,300,4,4
WDLeo_6,Ground station 1,2,2023-06-01 05:59:00,2023-06-01 06:11:00,720,4,4
WDLeo_18,Ground station 1,4,2023-06-01 06:16:00,2023-06-01 06:24:00,480,4,5
WDLeo_2,Ground station 1,4,2023-06-01 06:24:00,2023-06-01 06:30:00,360,5,5
WDLeo_5,Ground station 1,2,2023-06-01 06:24:00,2023-06-01 06:36:00,720,5,5
WDLeo_17,Ground station 1,5,2023-06-01 06:42:00,2023-06-01 06:47:00,300,5,5
WDLeo_1,Ground station 1,5,2023-06-01 06:49:00,2023-06-01 06:56:00,420,5,5
WDLeo_8,Ground station 1,2,2023-06-01 06:50:00,2023-06-01 07:01:00,660,5,5
WDLeo_4,Ground station 1,5,2023-06-01 07:13:00,2023-06-01 07:22:00,540,5,5
WDLeo_7,Ground station 1,3,2023-06-01 07:15:00,2023-06-01 07:25:00,600,5,5
WDLeo_3,Ground station 1,5,2023-06-01 07:38:00,2023-06-01 07:48:00,600,5,5
WDLeo_6,Ground station 1,3,2023-06-01 07:41:00,2023-06-01 07:50:00,540,5,5
WDLeo_2,Ground station 1,5,2023-06-01 08:03:00,2023-06-01 08:13:00,600,6,6
WDLeo_5,Ground station 1,3,2023-06-01 08:06:00,2023-06-01 08:15:00,540,6,6
WDLeo_1,Ground station 1,6,2023-06-01 08:27:00,2023-06-01 08:39:00,720,6,6
WDLeo_8,Ground station 1,3,2023-06-01 08:32:00,2023-06-01 08:39:00,420,6,6
WDLeo_11,Ground station 1,1,2023-06-01 08:41:00,2023-06-01 08:46:00,300,6,6
WDLeo_4,Ground station 1,6,2023-06-01 08:52:00,2023-06-01 09:04:00,720,6,6
WDLeo_7,Ground station 1,4,2023-06-01 08:58:00,2023-06-01 09:04:00,360,6,6
WDLeo_10,Ground station 1,1,2023-06-01 09:04:00,2023-06-01 09:12:00,480,6,6
WDLeo_3,Ground station 1,6,2023-06-01 09:17:00,2023-06-01 09:29:00,720,6,6
WDLeo_6,Ground station 1,4,2023-06-01 09:24:00,2023-06-01 09:29:00,300,6,6
WDLeo_9,Ground station 1,1,2023-06-01 09:28:00,2023-06-01 09:38:00,600,6,7
WDLeo_2,Ground station 1,6,2023-06-01 09:42:00,2023-06-01 09:54:00,720,7,7
WDLeo_5,Ground station 1,4,2023-06-01 09:50:00,2023-06-01 09:54:00,240,7,7
WDLeo_12,Ground station 1,1,2023-06-01 09:52:00,2023-06-01 10:03:00,660,7,7
WDLeo_1,Ground station 1,7,2023-06-01 10:07:00,2023-06-01 10:18:00,660,7,7
WDLeo_8,Ground station 1,4,2023-06-01 10:16:00,2023-06-01 10:20:00,240,7,7
WDLeo_11,Ground station 1,2,2023-06-01 10:16:00,2023-06-01 10:28:00,720,7,7
WDLeo_4,Ground station 1,7,2023-06-01 10:32:00,2023-06-01 10:42:00,600,7,7
WDLeo_7,Ground station 1,5,2023-06-01 10:41:00,2023-06-01 10:46:00,300,7,7
WDLeo_10,Ground station 1,2,2023-06-01 10:41:00,2023-06-01 10:53:00,720,7,7
WDLeo_3,Ground station 1,7,2023-06-01 10:58:00,2023-06-01 11:06:00,480,7,7
WDLeo_6,Ground station 1,5,2023-06-01 11:06:00,2023-06-01 11:12:00,360,7,8
WDLeo_9,Ground station 1,2,2023-06-01 11:06:00,2023-06-01 11:18:00,720,7,8
WDLeo_2,Ground station 1,7,2023-06-01 11:24:00,2023-06-01 11:29:00,300,8,8
WDLeo_5,Ground station 1,5,2023-06-01 11:31:00,2023-06-01 11:38:00,420,8,8
WDLeo_12,Ground station 1,2,2023-06-01 11:31:00,2023-06-01 11:43:00,720,8,8
WDLeo_8,Ground station 1,5,2023-06-01 11:55:00,2023-06-01 12:04:00,540,8,8
WDLeo_11,Ground station 1,3,2023-06-01 11:57:00,2023-06-01 12:07:00,600,8,8
WDLeo_7,Ground station 1,6,2023-06-01 12:20:00,2023-06-01 12:29:00,540,8,8
WDLeo_10,Ground station 1,3,2023-06-01 12:22:00,2023-06-01 12:32:00,600,8,8
WDLeo_6,Ground station 1,6,2023-06-01 12:45:00,2023-06-01 12:55:00,600,8,9
WDLeo_9,Ground station 1,3,2023-06-01 12:48:00,2023-06-01 12:57:00,540,9,9
WDLeo_5,Ground station 1,6,2023-06-01 13:09:00,2023-06-01 13:20:00,660,9,9
WDLeo_12,Ground station 1,3,2023-06-01 13:14:00,2023-06-01 13:21:00,420,9,9
WDLeo_15,Ground station 1,2,2023-06-01 13:23:00,2023-06-01 13:28:00,300,9,9
WDLeo_8,Ground station 1,6,2023-06-01 13:34:00,2023-06-01 13:46:00,720,9,9
WDLeo_11,Ground station 1,4,2023-06-01 13:40:00,2023-06-01 13:46:00,360,9,9
WDLeo_14,Ground station 1,3,2023-06-01 13:46:00,2023-06-01 13:54:00,480,9,9
WDLeo_7,Ground station 1,7,2023-06-01 13:59:00,2023-06-01 14:11:00,720,9,9
WDLeo_10,Ground station 1,4,2023-06-01 14:06:00,2023-06-01 14:11:00,300,9,9
WDLeo_13,Ground station 1,3,2023-06-01 14:10:00,2023-06-01 14:20:00,600,9,9
WDLeo_6,Ground station 1,7,2023-06-01 14:24:00,2023-06-01 14:36:00,720,10,10
WDLeo_9,Ground station 1,4,2023-06-01 14:32:00,2023-06-01 14:36:00,240,10,10
WDLeo_16,Ground station 1,2,2023-06-01 14:34:00,2023-06-01 14:45:00,660,10,10
WDLeo_5,Ground station 1,7,2023-06-01 14:49:00,2023-06-01 15:00:00,660,10,10
WDLeo_12,Ground station 1,4,2023-06-01 14:58:00,2023-06-01 15:01:00,180,10,10
WDLeo_15,Ground station 1,3,2023-06-01 14:58:00,2023-06-01 15:10:00,720,10,10
WDLeo_8,Ground station 1,7,2023-06-01 15:14:00,2023-06-01 15:25:00,660,10,10
WDLeo_11,Ground station 1,5,2023-06-01 15:23:00,2023-06-01 15:27:00,240,10,10
WDLeo_14,Ground station 1,4,2023-06-01 15:23:00,2023-06-01 15:35:00,720,10,10
WDLeo_7,Ground station 1,8,2023-06-01 15:40:00,2023-06-01 15:48:00,480,10,10
WDLeo_10,Ground station 1,5,2023-06-01 15:48:00,2023-06-01 15:53:00,300,10,10
WDLeo_13,Ground station 1,4,2023-06-01 15:48:00,2023-06-01 16:00:00,720,10,11
WDLeo_6,Ground station 1,8,2023-06-01 16:06:00,2023-06-01 16:12:00,360,11,11
WDLeo_9,Ground station 1,5,2023-06-01 16:13:00,2023-06-01 16:19:00,360,11,11
WDLeo_16,Ground station 1,3,2023-06-01 16:13:00,2023-06-01 16:25:00,720,11,11
WDLeo_12,Ground station 1,5,2023-06-01 16:37:00,2023-06-01 16:45:00,480,11,11
WDLeo_15,Ground station 1,4,2023-06-01 16:39:00,2023-06-01 16:49:00,600,11,11
WDLeo_11,Ground station 1,6,2023-06-01 17:02:00,2023-06-01 17:11:00,540,11,11
WDLeo_14,Ground station 1,5,2023-06-01 17:04:00,2023-06-01 17:14:00,600,11,11
WDLeo_10,Ground station 1,6,2023-06-01 17:27:00,2023-06-01 17:37:00,600,11,12
WDLeo_13,Ground station 1,5,2023-06-01 17:30:00,2023-06-01 17:39:00,540,11,12
WDLeo_9,Ground station 1,6,2023-06-01 17:51:00,2023-06-01 18:02:00,660,12,12
WDLeo_16,Ground station 1,4,2023-06-01 17:56:00,2023-06-01 18:03:00,420,12,12
WDLeo_19,Ground station 1,5,2023-06-01 18:06:00,2023-06-01 18:09:00,180,12,12
WDLeo_12,Ground station 1,6,2023-06-01 18:16:00,2023-06-01 18:28:00,720,12,12
WDLeo_15,Ground station 1,5,2023-06-01 18:22:00,2023-06-01 18:28:00,360,12,12
WDLeo_18,Ground station 1,5,2023-06-01 18:28:00,2023-06-01 18:36:00,480,12,12
WDLeo_11,Ground station 1,7,2023-06-01 18:41:00,2023-06-01 18:53:00,720,12,12
WDLeo_14,Ground station 1,6,2023-06-01 18:48:00,2023-06-01 18:53:00,300,12,12
WDLeo_17,Ground station 1,6,2023-06-01 18:52:00,2023-06-01 19:01:00,540,12,12
WDLeo_10,Ground station 1,7,2023-06-01 19:06:00,2023-06-01 19:18:00,720,12,13
WDLeo_13,Ground station 1,6,2023-06-01 19:14:00,2023-06-01 19:18:00,240,13,13
WDLeo_20,Ground station 1,5,2023-06-01 19:16:00,2023-06-01 19:27:00,660,13,13
WDLeo_9,Ground station 1,7,2023-06-01 19:31:00,2023-06-01 19:42:00,660,13,13
WDLeo_16,Ground station 1,5,2023-06-01 19:40:00,2023-06-01 19:43:00,180,13,13
WDLeo_19,Ground station 1,6,2023-06-01 19:40:00,2023-06-01 19:52:00,720,13,13
WDLeo_12,Ground station 1,7,2023-06-01 19:56:00,2023-06-01 20:07:00,660,13,13
WDLeo_15,Ground station 1,6,2023-06-01 20:05:00,2023-06-01 20:09:00,240,13,13
WDLeo_18,Ground station 1,6,2023-06-01 20:05:00,2023-06-01 20:17:00,720,13,13
WDLeo_11,Ground station 1,8,2023-06-01 20:21:00,2023-06-01 20:31:00,600,13,13
WDLeo_14,Ground station 1,7,2023-06-01 20:30:00,2023-06-01 20:35:00,300,13,13
WDLeo_17,Ground station 1,7,2023-06-01 20:30:00,2023-06-01 20:42:00,720,13,13
WDLeo_10,Ground station 1,8,2023-06-01 20:47:00,2023-06-01 20:54:00,420,14,14
WDLeo_13,Ground station 1,7,2023-06-01 20:55:00,2023-06-01 21:01:00,360,14,14
WDLeo_20,Ground station 1,6,2023-06-01 20:55:00,2023-06-01 21:06:00,660,14,14
WDLeo_9,Ground station 1,8,2023-06-01 21:15:00,2023-06-01 21:16:00,60,14,14
WDLeo_16,Ground station 1,6,2023-06-01 21:19:00,2023-06-01 21:27:00,480,14,14
WDLeo_19,Ground station 1,7,2023-06-01 21:20:00,2023-06-01 21:31:00,660,14,14
WDLeo_15,Ground station 1,7,2023-06-01 21:44:00,2023-06-01 21:53:00,540,14,14
WDLeo_18,Ground station 1,7,2023-06-01 21:46:00,2023-06-01 21:56:00,600,14,14
WDLeo_14,Ground station 1,8,2023-06-01 22:09:00,2023-06-01 22:19:00,600,14,14
WDLeo_17,Ground station 1,8,2023-06-01 22:12:00,2023-06-01 22:21:00,540,14,15
WDLeo_13,Ground station 1,8,2023-06-01 22:33:00,2023-06-01 22:44:00,660,15,15
WDLeo_20,Ground station 1,7,2023-06-01 22:38:00,2023-06-01 22:45:00,420,15,15
WDLeo_4,Ground station 1,8,2023-06-01 22:49:00,2023-06-01 22:50:00,60,15,15
WDLeo_16,Ground station 1,7,2023-06-01 22:58:00,2023-06-01 23:10:00,720,15,15
WDLeo_19,Ground station 1,8,2023-06-01 23:04:00,2023-06-01 23:10:00,360,15,15
WDLeo_3,Ground station 1,8,2023-06-01 23:11:00,2023-06-01 23:17:00,360,15,15
WDLeo_15,Ground station 1,8,2023-06-01 23:23:00,2023-06-01 23:35:00,720,15,15
WDLeo_18,Ground station 1,8,2023-06-01 23:30:00,2023-06-01 23:35:00,300,15,15
WDLeo_2,Ground station 1,8,2023-06-01 23:34:00,2023-06-01 23:43:00,540,15,15
WDLeo_14,Ground station 1,9,2023-06-01 23:48:00,2023-06-02 00:00:00,720,15,16
WDLeo_17,Ground station 1,9,2023-06-01 23:56:00,2023-06-02 00:00:00,240,16,16
WDLeo_1,Ground station 1,8,2023-06-01 23:58:00,2023-06-02 00:09:00,660,16,16
WDLeo_13,Ground station 1,9,2023-06-02 00:13:00,2023-06-02 00:24:00,660,16,16
WDLeo_20,Ground station 1,8,2023-06-02 00:22:00,2023-06-02 00:25:00,180,16,16
WDLeo_4,Ground station 1,9,2023-06-02 00:22:00,2023-06-02 00:34:00,720,16,16
WDLeo_16,Ground station 1,8,2023-06-02 00:38:00,2023-06-02 00:49:00,660,16,16
WDLeo_19,Ground station 1,9,2023-06-02 00:47:00,2023-06-02 00:51:00,240,16,16
WDLeo_3,Ground station 1,9,2023-06-02 00:47:00,2023-06-02 00:59:00,720,16,16
WDLeo_15,Ground station 1,9,2023-06-02 01:03:00,2023-06-02 01:13:00,600,16,16
WDLeo_18,Ground station 1,9,2023-06-02 01:12:00,2023-06-02 01:17:00,300,16,16
WDLeo_2,Ground station 1,9,2023-06-02 01:12:00,2023-06-02 01:24:00,720,16,16
WDLeo_14,Ground station 1,10,2023-06-02 01:29:00,2023-06-02 01:37:00,480,16,17
WDLeo_17,Ground station 1,10,2023-06-02 01:37:00,2023-06-02 01:43:00,360,17,17
WDLeo_1,Ground station 1,9,2023-06-02 01:37:00,2023-06-02 01:48:00,660,17,17
WDLeo_13,Ground station 1,10,2023-06-02 01:56:00,2023-06-02 01:59:00,180,17,17
WDLeo_20,Ground station 1,9,2023-06-02 02:01:00,2023-06-02 02:09:00,480,17,17
WDLeo_4,Ground station 1,10,2023-06-02 02:02:00,2023-06-02 02:13:00,660,17,17
WDLeo_19,Ground station 1,10,2023-06-02 02:26:00,2023-06-02 02:35:00,540,17,17
WDLeo_3,Ground station 1,10,2023-06-02 02:28:00,2023-06-02 02:38:00,600,17,17
WDLeo_18,Ground station 1,10,2023-06-02 02:51:00,2023-06-02 03:00:00,540,17,17
WDLeo_2,Ground station 1,10,2023-06-02 02:54:00,2023-06-02 03:03:00,540,17,17
WDLeo_17,Ground station 1,11,2023-06-02 03:15:00,2023-06-02 03:26:00,660,18,18
WDLeo_1,Ground station 1,10,2023-06-02 03:19:00,2023-06-02 03:27:00,480,18,18
WDLeo_20,Ground station 1,10,2023-06-02 03:40:00,2023-06-02 03:51:00,660,18,18
WDLeo_4,Ground station 1,11,2023-06-02 03:45:00,2023-06-02 03:52:00,420,18,18
WDLeo_7,Ground station 1,9,2023-06-02 03:53:00,2023-06-02 03:59:00,360,18,18
WDLeo_3,Ground station 1,11,2023-06-02 04:11:00,2023-06-02 04:17:00,360,18,18
WDLeo_19,Ground station 1,11,2023-06-02 04:05:00,2023-06-02 04:17:00,720,18,18
WDLeo_6,Ground station 1,9,2023-06-02 04:16:00,2023-06-02 04:25:00,540,18,18
WDLeo_2,Ground station 1,11,2023-06-02 04:37:00,2023-06-02 04:42:00,300,18,19
WDLeo_18,Ground station 1,11,2023-06-02 04:30:00,2023-06-02 04:42:00,720,18,19
WDLeo_5,Ground station 1,8,2023-06-02 04:40:00,2023-06-02 04:51:00,660,18,19
WDLeo_17,Ground station 1,12,2023-06-02 04:55:00,2023-06-02 05:06:00,660,19,19
WDLeo_1,Ground station 1,11,2023-06-02 05:03:00,2023-06-02 05:07:00,240,19,19
WDLeo_8,Ground station 1,8,2023-06-02 05:04:00,2023-06-02 05:16:00,720,19,19
WDLeo_20,Ground station 1,11,2023-06-02 05:20:00,2023-06-02 05:31:00,660,19,19
WDLeo_4,Ground station 1,12,2023-06-02 05:29:00,2023-06-02 05:32:00,180,19,19
WDLeo_7,Ground station 1,10,2023-06-02 05:29:00,2023-06-02 05:41:00,720,19,19
WDLeo_19,Ground station 1,12,2023-06-02 05:45:00,2023-06-02 05:55:00,600,19,19
WDLeo_3,Ground station 1,12,2023-06-02 05:54:00,2023-06-02 05:58:00,240,19,19
WDLeo_6,Ground station 1,10,2023-06-02 05:54:00,2023-06-02 06:06:00,720,19,19
WDLeo_18,Ground station 1,12,2023-06-02 06:11:00,2023-06-02 06:19:00,480,19,20
WDLeo_2,Ground station 1,12,2023-06-02 06:19:00,2023-06-02 06:24:00,300,20,20
WDLeo_5,Ground station 1,9,2023-06-02 06:19:00,2023-06-02 06:30:00,660,20,20
WDLeo_17,Ground station 1,13,2023-06-02 06:37:00,2023-06-02 06:42:00,300,20,20
WDLeo_1,Ground station 1,12,2023-06-02 06:43:00,2023-06-02 06:50:00,420,20,20
WDLeo_8,Ground station 1,9,2023-06-02 06:44:00,2023-06-02 06:55:00,660,20,20
WDLeo_4,Ground station 1,13,2023-06-02 07:08:00,2023-06-02 07:16:00,480,20,20
WDLeo_7,Ground station 1,11,2023-06-02 07:10:00,2023-06-02 07:20:00,600,20,20
WDLeo_3,Ground station 1,13,2023-06-02 07:33:00,2023-06-02 07:42:00,540,20,20
WDLeo_6,Ground station 1,11,2023-06-02 07:35:00,2023-06-02 07:45:00,600,20,20
WDLeo_2,Ground station 1,13,2023-06-02 07:57:00,2023-06-02 08:08:00,660,21,21
WDLeo_5,Ground station 1,10,2023-06-02 08:01:00,2023-06-02 08:09:00,480,21,21
WDLeo_1,Ground station 1,13,2023-06-02 08:22:00,2023-06-02 08:33:00,660,21,21
WDLeo_8,Ground station 1,10,2023-06-02 08:27:00,2023-06-02 08:34:00,420,21,21
WDLeo_11,Ground station 1,9,2023-06-02 08:35:00,2023-06-02 08:41:00,360,21,21
WDLeo_4,Ground station 1,14,2023-06-02 08:47:00,2023-06-02 08:58:00,660,21,21
WDLeo_7,Ground station 1,12,2023-06-02 08:53:00,2023-06-02 08:59:00,360,21,21
WDLeo_10,Ground station 1,9,2023-06-02 08:59:00,2023-06-02 09:07:00,480,21,21
WDLeo_3,Ground station 1,14,2023-06-02 09:12:00,2023-06-02 09:23:00,660,21,21
WDLeo_6,Ground station 1,12,2023-06-02 09:19:00,2023-06-02 09:24:00,300,21,21
WDLeo_9,Ground station 1,9,2023-06-02 09:22:00,2023-06-02 09:32:00,600,21,22
WDLeo_2,Ground station 1,14,2023-06-02 09:37:00,2023-06-02 09:48:00,660,22,22
WDLeo_5,Ground station 1,11,2023-06-02 09:45:00,2023-06-02 09:49:00,240,22,22
WDLeo_12,Ground station 1,8,2023-06-02 09:47:00,2023-06-02 09:58:00,660,22,22
WDLeo_1,Ground station 1,14,2023-06-02 10:02:00,2023-06-02 10:13:00,660,22,22
WDLeo_8,Ground station 1,11,2023-06-02 10:11:00,2023-06-02 10:14:00,180,22,22
WDLeo_11,Ground station 1,10,2023-06-02 10:11:00,2023-06-02 10:23:00,720,22,22
WDLeo_4,Ground station 1,15,2023-06-02 10:27:00,2023-06-02 10:37:00,600,22,22
WDLeo_7,Ground station 1,13,2023-06-02 10:36:00,2023-06-02 10:40:00,240,22,22
WDLeo_10,Ground station 1,10,2023-06-02 10:36:00,2023-06-02 10:48:00,720,22,22
WDLeo_3,Ground station 1,15,2023-06-02 10:52:00,2023-06-02 11:01:00,540,22,22
WDLeo_6,Ground station 1,13,2023-06-02 11:01:00,2023-06-02 11:06:00,300,22,23
WDLeo_9,Ground station 1,10,2023-06-02 11:01:00,2023-06-02 11:12:00,660,22,23
WDLeo_2,Ground station 1,15,2023-06-02 11:19:00,2023-06-02 11:24:00,300,23,23
WDLeo_5,Ground station 1,12,2023-06-02 11:25:00,2023-06-02 11:32:00,420,23,23
WDLeo_12,Ground station 1,9,2023-06-02 11:26:00,2023-06-02 11:37:00,660,23,23
WDLeo_8,Ground station 1,12,2023-06-02 11:50:00,2023-06-02 11:58:00,480,23,23
WDLeo_11,Ground station 1,11,2023-06-02 11:51:00,2023-06-02 12:02:00,660,23,23
WDLeo_7,Ground station 1,14,2023-06-02 12:15:00,2023-06-02 12:24:00,540,23,23
WDLeo_10,Ground station 1,11,2023-06-02 12:17:00,2023-06-02 12:27:00,600,23,23
WDLeo_6,Ground station 1,14,2023-06-02 12:39:00,2023-06-02 12:50:00,660,23,24
WDLeo_9,Ground station 1,11,2023-06-02 12:43:00,2023-06-02 12:51:00,480,24,24
WDLeo_5,Ground station 1,13,2023-06-02 13:04:00,2023-06-02 13:15:00,660,24,24
WDLeo_12,Ground station 1,10,2023-06-02 13:09:00,2023-06-02 13:16:00,420,24,24
WDLeo_15,Ground station 1,10,2023-06-02 13:18:00,2023-06-02 13:22:00,240,24,24
WDLeo_8,Ground station 1,13,2023-06-02 13:29:00,2023-06-02 13:40:00,660,24,24
WDLeo_11,Ground station 1,12,2023-06-02 13:35:00,2023-06-02 13:41:00,360,24,24
WDLeo_14,Ground station 1,11,2023-06-02 13:41:00,2023-06-02 13:49:00,480,24,24
WDLeo_7,Ground station 1,15,2023-06-02 13:54:00,2023-06-02 14:05:00,660,24,24
WDLeo_10,Ground station 1,12,2023-06-02 14:01:00,2023-06-02 14:06:00,300,24,24
WDLeo_13,Ground station 1,11,2023-06-02 14:04:00,2023-06-02 14:14:00,600,24,24
WDLeo_6,Ground station 1,15,2023-06-02 14:19:00,2023-06-02 14:30:00,660,25,25
WDLeo_9,Ground station 1,12,2023-06-02 14:27:00,2023-06-02 14:31:00,240,25,25
WDLeo_16,Ground station 1,9,2023-06-02 14:29:00,2023-06-02 14:40:00,660,25,25
WDLeo_5,Ground station 1,14,2023-06-02 14:44:00,2023-06-02 14:55:00,660,25,25
WDLeo_12,Ground station 1,11,2023-06-02 14:52:00,2023-06-02 14:56:00,240,25,25
WDLeo_15,Ground station 1,11,2023-06-02 14:53:00,2023-06-02 15:05:00,720,25,25
WDLeo_8,Ground station 1,14,2023-06-02 15:09:00,2023-06-02 15:19:00,600,25,25
WDLeo_11,Ground station 1,13,2023-06-02 15:18:00,2023-06-02 15:22:00,240,25,25
WDLeo_14,Ground station 1,12,2023-06-02 15:18:00,2023-06-02 15:30:00,720,25,25
WDLeo_7,Ground station 1,16,2023-06-02 15:34:00,2023-06-02 15:43:00,540,25,25
WDLeo_10,Ground station 1,13,2023-06-02 15:43:00,2023-06-02 15:48:00,300,25,25
WDLeo_13,Ground station 1,12,2023-06-02 15:43:00,2023-06-02 15:54:00,660,25,26
WDLeo_6,Ground station 1,16,2023-06-02 16:00:00,2023-06-02 16:07:00,420,26,26
WDLeo_9,Ground station 1,13,2023-06-02 16:07:00,2023-06-02 16:14:00,420,26,26
WDLeo_16,Ground station 1,10,2023-06-02 16:08:00,2023-06-02 16:19:00,660,26,26
WDLeo_12,Ground station 1,12,2023-06-02 16:32:00,2023-06-02 16:40:00,480,26,26
WDLeo_15,Ground station 1,12,2023-06-02 16:33:00,2023-06-02 16:44:00,660,26,26
WDLeo_11,Ground station 1,14,2023-06-02 16:57:00,2023-06-02 17:06:00,540,26,26
WDLeo_14,Ground station 1,13,2023-06-02 16:59:00,2023-06-02 17:09:00,600,26,26
WDLeo_10,Ground station 1,14,2023-06-02 17:21:00,2023-06-02 17:31:00,600,26,27
WDLeo_13,Ground station 1,13,2023-06-02 17:25:00,2023-06-02 17:33:00,480,26,27
WDLeo_9,Ground station 1,14,2023-06-02 17:46:00,2023-06-02 17:57:00,660,27,27
WDLeo_16,Ground station 1,11,2023-06-02 17:51:00,2023-06-02 17:58:00,420,27,27
WDLeo_19,Ground station 1,13,2023-06-02 18:01:00,2023-06-02 18:04:00,180,27,27
WDLeo_12,Ground station 1,13,2023-06-02 18:11:00,2023-06-02 18:22:00,660,27,27
WDLeo_15,Ground station 1,13,2023-06-02 18:17:00,2023-06-02 18:23:00,360,27,27
WDLeo_18,Ground station 1,13,2023-06-02 18:23:00,2023-06-02 18:30:00,420,27,27
WDLeo_11,Ground station 1,15,2023-06-02 18:36:00,2023-06-02 18:47:00,660,27,27
WDLeo_14,Ground station 1,14,2023-06-02 18:43:00,2023-06-02 18:47:00,240,27,27
WDLeo_17,Ground station 1,14,2023-06-02 18:47:00,2023-06-02 18:56:00,540,27,27
WDLeo_10,Ground station 1,15,2023-06-02 19:01:00,2023-06-02 19:12:00,660,27,28
WDLeo_13,Ground station 1,14,2023-06-02 19:09:00,2023-06-02 19:12:00,180,28,28
WDLeo_20,Ground station 1,12,2023-06-02 19:11:00,2023-06-02 19:21:00,600,28,28
WDLeo_9,Ground station 1,15,2023-06-02 19:26:00,2023-06-02 19:37:00,660,28,28
WDLeo_16,Ground station 1,12,2023-06-02 19:34:00,2023-06-02 19:38:00,240,28,28
WDLeo_19,Ground station 1,14,2023-06-02 19:35:00,2023-06-02 19:47:00,720,28,28
WDLeo_12,Ground station 1,14,2023-06-02 19:51:00,2023-06-02 20:01:00,600,28,28
WDLeo_15,Ground station 1,14,2023-06-02 20:00:00,2023-06-02 20:04:00,240,28,28
WDLeo_18,Ground station 1,14,2023-06-02 20:00:00,2023-06-02 20:12:00,720,28,28
WDLeo_11,Ground station 1,16,2023-06-02 20:16:00,2023-06-02 20:25:00,540,28,28
WDLeo_14,Ground station 1,15,2023-06-02 20:25:00,2023-06-02 20:30:00,300,28,28
WDLeo_17,Ground station 1,15,2023-06-02 20:25:00,2023-06-02 20:36:00,660,28,28
WDLeo_10,Ground station 1,16,2023-06-02 20:42:00,2023-06-02 20:49:00,420,29,29
WDLeo_13,Ground station 1,15,2023-06-02 20:49:00,2023-06-02 20:56:00,420,29,29
WDLeo_20,Ground station 1,13,2023-06-02 20:50:00,2023-06-02 21:01:00,660,29,29
WDLeo_9,Ground station 1,16,2023-06-02 21:09:00,2023-06-02 21:11:00,120,29,29
WDLeo_16,Ground station 1,13,2023-06-02 21:14:00,2023-06-02 21:22:00,480,29,29
WDLeo_19,Ground station 1,15,2023-06-02 21:15:00,2023-06-02 21:26:00,660,29,29
WDLeo_15,Ground station 1,15,2023-06-02 21:39:00,2023-06-02 21:48:00,540,29,29
WDLeo_18,Ground station 1,15,2023-06-02 21:41:00,2023-06-02 21:51:00,600,29,29
WDLeo_14,Ground station 1,16,2023-06-02 22:04:00,2023-06-02 22:13:00,540,29,29
WDLeo_17,Ground station 1,16,2023-06-02 22:06:00,2023-06-02 22:15:00,540,29,30
WDLeo_13,Ground station 1,16,2023-06-02 22:28:00,2023-06-02 22:39:00,660,30,30
WDLeo_20,Ground station 1,14,2023-06-02 22:32:00,2023-06-02 22:40:00,480,30,30
WDLeo_16,Ground station 1,14,2023-06-02 22:53:00,2023-06-02 23:04:00,660,30,30
WDLeo_19,Ground station 1,16,2023-06-02 22:58:00,2023-06-02 23:05:00,420,30,30
WDLeo_3,Ground station 1,16,2023-06-02 23:05:00,2023-06-02 23:12:00,420,30,30
WDLeo_15,Ground station 1,16,2023-06-02 23:18:00,2023-06-02 23:29:00,660,30,30
WDLeo_18,Ground station 1,16,2023-06-02 23:24:00,2023-06-02 23:29:00,300,30,30
WDLeo_2,Ground station 1,16,2023-06-02 23:29:00,2023-06-02 23:38:00,540,30,30
WDLeo_14,Ground station 1,17,2023-06-02 23:43:00,2023-06-02 23:54:00,660,30,31
WDLeo_17,Ground station 1,17,2023-06-02 23:50:00,2023-06-02 23:54:00,240,31,31
WDLeo_1,Ground station 1,15,2023-06-02 23:53:00,2023-06-03 00:03:00,600,31,31
WDLeo_13,Ground station 1,17,2023-06-03 00:07:00,2023-06-03 00:19:00,720,31,31
WDLeo_20,Ground station 1,15,2023-06-03 00:16:00,2023-06-03 00:20:00,240,31,31
WDLeo_4,Ground station 1,16,2023-06-03 00:17:00,2023-06-03 00:28:00,660,31,31
WDLeo_16,Ground station 1,15,2023-06-03 00:33:00,2023-06-03 00:43:00,600,31,31
WDLeo_19,Ground station 1,17,2023-06-03 00:42:00,2023-06-03 00:45:00,180,31,31
WDLeo_3,Ground station 1,17,2023-06-03 00:42:00,2023-06-03 00:53:00,660,31,31
WDLeo_15,Ground station 1,17,2023-06-03 00:58:00,2023-06-03 01:08:00,600,31,31
WDLeo_18,Ground station 1,17,2023-06-03 01:07:00,2023-06-03 01:11:00,240,31,31
WDLeo_2,Ground station 1,17,2023-06-03 01:07:00,2023-06-03 01:18:00,660,31,31
WDLeo_14,Ground station 1,18,2023-06-03 01:24:00,2023-06-03 01:31:00,420,31,32
WDLeo_17,Ground station 1,18,2023-06-03 01:31:00,2023-06-03 01:37:00,360,32,32
WDLeo_1,Ground station 1,16,2023-06-03 01:32:00,2023-06-03 01:43:00,660,32,32
WDLeo_13,Ground station 1,18,2023-06-03 01:50:00,2023-06-03 01:54:00,240,32,32
WDLeo_20,Ground station 1,16,2023-06-03 01:56:00,2023-06-03 02:03:00,420,32,32
WDLeo_4,Ground station 1,17,2023-06-03 01:57:00,2023-06-03 02:08:00,660,32,32
WDLeo_19,Ground station 1,18,2023-06-03 02:21:00,2023-06-03 02:29:00,480,32,32
WDLeo_3,Ground station 1,18,2023-06-03 02:22:00,2023-06-03 02:33:00,660,32,32
WDLeo_18,Ground station 1,18,2023-06-03 02:45:00,2023-06-03 02:55:00,600,32,32
WDLeo_2,Ground station 1,18,2023-06-03 02:48:00,2023-06-03 02:57:00,540,32,32
WDLeo_17,Ground station 1,19,2023-06-03 03:10:00,2023-06-03 03:21:00,660,33,33
WDLeo_1,Ground station 1,17,2023-06-03 03:14:00,2023-06-03 03:22:00,480,33,33
WDLeo_20,Ground station 1,17,2023-06-03 03:35:00,2023-06-03 03:46:00,660,33,33
WDLeo_4,Ground station 1,18,2023-06-03 03:40:00,2023-06-03 03:47:00,420,33,33
WDLeo_7,Ground station 1,17,2023-06-03 03:48:00,2023-06-03 03:54:00,360,33,33
WDLeo_3,Ground station 1,19,2023-06-03 04:06:00,2023-06-03 04:11:00,300,33,33
WDLeo_19,Ground station 1,19,2023-06-03 04:00:00,2023-06-03 04:11:00,660,33,33
WDLeo_6,Ground station 1,17,2023-06-03 04:11:00,2023-06-03 04:20:00,540,33,33
WDLeo_2,Ground station 1,19,2023-06-03 04:32:00,2023-06-03 04:36:00,240,33,33
WDLeo_18,Ground station 1,19,2023-06-03 04:24:00,2023-06-03 04:36:00,720,33,33
WDLeo_5,Ground station 1,15,2023-06-03 04:35:00,2023-06-03 04:45:00,600,33,34
WDLeo_1,Ground station 1,18,2023-06-03 04:58:00,2023-06-03 05:01:00,180,34,34
WDLeo_17,Ground station 1,20,2023-06-03 04:49:00,2023-06-03 05:01:00,720,34,34
WDLeo_8,Ground station 1,15,2023-06-03 04:59:00,2023-06-03 05:10:00,660,34,34
WDLeo_20,Ground station 1,18,2023-06-03 05:14:00,2023-06-03 05:26:00,720,34,34
WDLeo_4,Ground station 1,19,2023-06-03 05:23:00,2023-06-03 05:27:00,240,34,34
WDLeo_7,Ground station 1,18,2023-06-03 05:24:00,2023-06-03 05:35:00,660,34,34
WDLeo_19,Ground station 1,20,2023-06-03 05:40:00,2023-06-03 05:50:00,600,34,34
WDLeo_3,Ground station 1,20,2023-06-03 05:48:00,2023-06-03 05:53:00,300,34,34
WDLeo_6,Ground station 1,18,2023-06-03 05:49:00,2023-06-03 06:00:00,660,34,34
WDLeo_18,Ground station 1,20,2023-06-03 06:05:00,2023-06-03 06:14:00,540,34,35
WDLeo_2,Ground station 1,20,2023-06-03 06:13:00,2023-06-03 06:19:00,360,35,35
WDLeo_5,Ground station 1,16,2023-06-03 06:14:00,2023-06-03 06:25:00,660,35,35
WDLeo_17,Ground station 1,21,2023-06-03 06:32:00,2023-06-03 06:37:00,300,35,35
WDLeo_1,Ground station 1,19,2023-06-03 06:38:00,2023-06-03 06:45:00,420,35,35
WDLeo_8,Ground station 1,16,2023-06-03 06:39:00,2023-06-03 06:50:00,660,35,35
WDLeo_4,Ground station 1,20,2023-06-03 07:03:00,2023-06-03 07:11:00,480,35,35
WDLeo_7,Ground station 1,19,2023-06-03 07:04:00,2023-06-03 07:15:00,660,35,35
WDLeo_3,Ground station 1,21,2023-06-03 07:27:00,2023-06-03 07:37:00,600,35,35
WDLeo_6,Ground station 1,19,2023-06-03 07:30:00,2023-06-03 07:39:00,540,35,35
WDLeo_2,Ground station 1,21,2023-06-03 07:52:00,2023-06-03 08:02:00,600,36,36
WDLeo_5,Ground station 1,17,2023-06-03 07:56:00,2023-06-03 08:04:00,480,36,36
WDLeo_1,Ground station 1,20,2023-06-03 08:17:00,2023-06-03 08:28:00,660,36,36
WDLeo_8,Ground station 1,17,2023-06-03 08:22:00,2023-06-03 08:29:00,420,36,36
WDLeo_11,Ground station 1,17,2023-06-03 08:30:00,2023-06-03 08:35:00,300,36,36
WDLeo_4,Ground station 1,21,2023-06-03 08:42:00,2023-06-03 08:53:00,660,36,36
WDLeo_7,Ground station 1,20,2023-06-03 08:48:00,2023-06-03 08:53:00,300,36,36
WDLeo_10,Ground station 1,17,2023-06-03 08:53:00,2023-06-03 09:02:00,540,36,36
WDLeo_3,Ground station 1,22,2023-06-03 09:06:00,2023-06-03 09:18:00,720,36,36
WDLeo_6,Ground station 1,20,2023-06-03 09:14:00,2023-06-03 09:18:00,240,36,36
WDLeo_9,Ground station 1,17,2023-06-03 09:17:00,2023-06-03 09:27:00,600,36,37
WDLeo_2,Ground station 1,22,2023-06-03 09:31:00,2023-06-03 09:43:00,720,37,37
WDLeo_5,Ground station 1,18,2023-06-03 09:40:00,2023-06-03 09:43:00,180,37,37
WDLeo_12,Ground station 1,15,2023-06-03 09:41:00,2023-06-03 09:52:00,660,37,37
WDLeo_1,Ground station 1,21,2023-06-03 09:56:00,2023-06-03 10:08:00,720,37,37
WDLeo_8,Ground station 1,18,2023-06-03 10:05:00,2023-06-03 10:09:00,240,37,37
WDLeo_11,Ground station 1,18,2023-06-03 10:06:00,2023-06-03 10:17:00,660,37,37
WDLeo_4,Ground station 1,22,2023-06-03 10:22:00,2023-06-03 10:32:00,600,37,37
WDLeo_7,Ground station 1,21,2023-06-03 10:30:00,2023-06-03 10:35:00,300,37,37
WDLeo_10,Ground station 1,18,2023-06-03 10:31:00,2023-06-03 10:42:00,660,37,37
WDLeo_3,Ground station 1,23,2023-06-03 10:47:00,2023-06-03 10:56:00,540,37,37
WDLeo_6,Ground station 1,21,2023-06-03 10:55:00,2023-06-03 11:01:00,360,37,38
WDLeo_9,Ground station 1,18,2023-06-03 10:56:00,2023-06-03 11:07:00,660,37,38
WDLeo_2,Ground station 1,23,2023-06-03 11:13:00,2023-06-03 11:19:00,360,38,38
WDLeo_5,Ground station 1,19,2023-06-03 11:20:00,2023-06-03 11:27:00,420,38,38
WDLeo_12,Ground station 1,16,2023-06-03 11:21:00,2023-06-03 11:32:00,660,38,38
WDLeo_8,Ground station 1,19,2023-06-03 11:45:00,2023-06-03 11:53:00,480,38,38
WDLeo_11,Ground station 1,19,2023-06-03 11:46:00,2023-06-03 11:57:00,660,38,38
WDLeo_7,Ground station 1,22,2023-06-03 12:09:00,2023-06-03 12:19:00,600,38,38
WDLeo_10,Ground station 1,19,2023-06-03 12:12:00,2023-06-03 12:21:00,540,38,38
WDLeo_6,Ground station 1,22,2023-06-03 12:34:00,2023-06-03 12:44:00,600,38,39
WDLeo_9,Ground station 1,19,2023-06-03 12:38:00,2023-06-03 12:46:00,480,39,39
WDLeo_5,Ground station 1,20,2023-06-03 12:59:00,2023-06-03 13:10:00,660,39,39
WDLeo_12,Ground station 1,17,2023-06-03 13:03:00,2023-06-03 13:11:00,480,39,39
WDLeo_15,Ground station 1,18,2023-06-03 13:13:00,2023-06-03 13:17:00,240,39,39
WDLeo_8,Ground station 1,20,2023-06-03 13:24:00,2023-06-03 13:35:00,660,39,39
WDLeo_11,Ground station 1,20,2023-06-03 13:29:00,2023-06-03 13:35:00,360,39,39
WDLeo_14,Ground station 1,19,2023-06-03 13:36:00,2023-06-03 13:43:00,420,39,39
WDLeo_7,Ground station 1,23,2023-06-03 13:48:00,2023-06-03 14:00:00,720,39,39
WDLeo_10,Ground station 1,20,2023-06-03 13:56:00,2023-06-03 14:00:00,240,39,39
WDLeo_13,Ground station 1,19,2023-06-03 13:59:00,2023-06-03 14:09:00,600,39,39
WDLeo_6,Ground station 1,23,2023-06-03 14:13:00,2023-06-03 14:25:00,720,40,40
WDLeo_9,Ground station 1,20,2023-06-03 14:21:00,2023-06-03 14:25:00,240,40,40
WDLeo_16,Ground station 1,16,2023-06-03 14:23:00,2023-06-03 14:34:00,660,40,40
WDLeo_5,Ground station 1,21,2023-06-03 14:38:00,2023-06-03 14:50:00,720,40,40
WDLeo_12,Ground station 1,18,2023-06-03 14:47:00,2023-06-03 14:51:00,240,40,40
WDLeo_15,Ground station 1,19,2023-06-03 14:48:00,2023-06-03 14:59:00,660,40,40
WDLeo_8,Ground station 1,21,2023-06-03 15:03:00,2023-06-03 15:14:00,660,40,40
WDLeo_11,Ground station 1,21,2023-06-03 15:12:00,2023-06-03 15:17:00,300,40,40
WDLeo_14,Ground station 1,20,2023-06-03 15:13:00,2023-06-03 15:24:00,660,40,40
WDLeo_7,Ground station 1,24,2023-06-03 15:29:00,2023-06-03 15:38:00,540,40,40
WDLeo_10,Ground station 1,21,2023-06-03 15:37:00,2023-06-03 15:43:00,360,40,40
WDLeo_13,Ground station 1,20,2023-06-03 15:37:00,2023-06-03 15:49:00,720,40,41
WDLeo_6,Ground station 1,24,2023-06-03 15:55:00,2023-06-03 16:01:00,360,41,41
WDLeo_9,Ground station 1,21,2023-06-03 16:02:00,2023-06-03 16:09:00,420,41,41
WDLeo_16,Ground station 1,17,2023-06-03 16:03:00,2023-06-03 16:14:00,660,41,41
WDLeo_12,Ground station 1,19,2023-06-03 16:27:00,2023-06-03 16:35:00,480,41,41
WDLeo_15,Ground station 1,20,2023-06-03 16:28:00,2023-06-03 16:39:00,660,41,41
WDLeo_11,Ground station 1,22,2023-06-03 16:51:00,2023-06-03 17:00:00,540,41,41
WDLeo_14,Ground station 1,21,2023-06-03 16:54:00,2023-06-03 17:03:00,540,41,41
WDLeo_10,Ground station 1,22,2023-06-03 17:16:00,2023-06-03 17:26:00,600,41,42
WDLeo_13,Ground station 1,21,2023-06-03 17:19:00,2023-06-03 17:28:00,540,41,42
WDLeo_9,Ground station 1,22,2023-06-03 17:41:00,2023-06-03 17:52:00,660,42,42
WDLeo_16,Ground station 1,18,2023-06-03 17:45:00,2023-06-03 17:53:00,480,42,42
WDLeo_19,Ground station 1,21,2023-06-03 17:56:00,2023-06-03 17:58:00,120,42,42
WDLeo_12,Ground station 1,20,2023-06-03 18:06:00,2023-06-03 18:17:00,660,42,42
WDLeo_15,Ground station 1,21,2023-06-03 18:11:00,2023-06-03 18:17:00,360,42,42
WDLeo_18,Ground station 1,21,2023-06-03 18:18:00,2023-06-03 18:25:00,420,42,42
WDLeo_11,Ground station 1,23,2023-06-03 18:30:00,2023-06-03 18:42:00,720,42,42
WDLeo_14,Ground station 1,22,2023-06-03 18:37:00,2023-06-03 18:42:00,300,42,42
WDLeo_17,Ground station 1,22,2023-06-03 18:41:00,2023-06-03 18:51:00,600,42,42
WDLeo_10,Ground station 1,23,2023-06-03 18:55:00,2023-06-03 19:07:00,720,42,43
WDLeo_13,Ground station 1,22,2023-06-03 19:03:00,2023-06-03 19:07:00,240,43,43
WDLeo_20,Ground station 1,19,2023-06-03 19:05:00,2023-06-03 19:16:00,660,43,43
WDLeo_9,Ground station 1,23,2023-06-03 19:20:00,2023-06-03 19:32:00,720,43,43
WDLeo_16,Ground station 1,19,2023-06-03 19:29:00,2023-06-03 19:32:00,180,43,43
WDLeo_19,Ground station 1,22,2023-06-03 19:30:00,2023-06-03 19:41:00,660,43,43
WDLeo_12,Ground station 1,21,2023-06-03 19:45:00,2023-06-03 19:56:00,660,43,43
WDLeo_15,Ground station 1,22,2023-06-03 19:54:00,2023-06-03 19:58:00,240,43,43
WDLeo_18,Ground station 1,22,2023-06-03 19:54:00,2023-06-03 20:06:00,720,43,43
WDLeo_11,Ground station 1,24,2023-06-03 20:11:00,2023-06-03 20:20:00,540,43,43
WDLeo_14,Ground station 1,23,2023-06-03 20:19:00,2023-06-03 20:24:00,300,43,43
WDLeo_17,Ground station 1,23,2023-06-03 20:19:00,2023-06-03 20:31:00,720,43,43
WDLeo_10,Ground station 1,24,2023-06-03 20:36:00,2023-06-03 20:44:00,480,44,44
WDLeo_13,Ground station 1,23,2023-06-03 20:44:00,2023-06-03 20:50:00,360,44,44
WDLeo_20,Ground station 1,20,2023-06-03 20:45:00,2023-06-03 20:56:00,660,44,44
WDLeo_9,Ground station 1,24,2023-06-03 21:03:00,2023-06-03 21:06:00,180,44,44
WDLeo_16,Ground station 1,20,2023-06-03 21:09:00,2023-06-03 21:16:00,420,44,44
WDLeo_19,Ground station 1,23,2023-06-03 21:10:00,2023-06-03 21:21:00,660,44,44
WDLeo_15,Ground station 1,23,2023-06-03 21:34:00,2023-06-03 21:42:00,480,44,44
WDLeo_18,Ground station 1,23,2023-06-03 21:35:00,2023-06-03 21:45:00,600,44,44
WDLeo_14,Ground station 1,24,2023-06-03 21:58:00,2023-06-03 22:08:00,600,44,44
WDLeo_17,Ground station 1,24,2023-06-03 22:01:00,2023-06-03 22:10:00,540,44,45
WDLeo_13,Ground station 1,24,2023-06-03 22:23:00,2023-06-03 22:34:00,660,45,45
WDLeo_20,Ground station 1,21,2023-06-03 22:27:00,2023-06-03 22:35:00,480,45,45
WDLeo_16,Ground station 1,21,2023-06-03 22:48:00,2023-06-03 22:59:00,660,45,45
WDLeo_19,Ground station 1,24,2023-06-03 22:53:00,2023-06-03 22:59:00,360,45,45
WDLeo_3,Ground station 1,24,2023-06-03 23:00:00,2023-06-03 23:07:00,420,45,45
WDLeo_15,Ground station 1,24,2023-06-03 23:12:00,2023-06-03 23:24:00,720,45,45
WDLeo_18,Ground station 1,24,2023-06-03 23:19:00,2023-06-03 23:24:00,300,45,45
WDLeo_2,Ground station 1,24,2023-06-03 23:24:00,2023-06-03 23:33:00,540,45,45
WDLeo_14,Ground station 1,25,2023-06-03 23:37:00,2023-06-03 23:49:00,720,45,46
WDLeo_17,Ground station 1,25,2023-06-03 23:45:00,2023-06-03 23:49:00,240,46,46
WDLeo_1,Ground station 1,22,2023-06-03 23:48:00,2023-06-03 23:58:00,600,46,46
WDLeo_13,Ground station 1,25,2023-06-04 00:02:00,2023-06-04 00:14:00,720,46,46
WDLeo_20,Ground station 1,22,2023-06-04 00:11:00,2023-06-04 00:14:00,180,46,46
WDLeo_4,Ground station 1,23,2023-06-04 00:12:00,2023-06-04 00:23:00,660,46,46
WDLeo_16,Ground station 1,22,2023-06-04 00:27:00,2023-06-04 00:38:00,660,46,46
WDLeo_19,Ground station 1,25,2023-06-04 00:36:00,2023-06-04 00:40:00,240,46,46
WDLeo_3,Ground station 1,25,2023-06-04 00:36:00,2023-06-04 00:48:00,720,46,46
WDLeo_15,Ground station 1,25,2023-06-04 00:53:00,2023-06-04 01:02:00,540,46,46
WDLeo_18,Ground station 1,25,2023-06-04 01:01:00,2023-06-04 01:06:00,300,46,46
WDLeo_2,Ground station 1,25,2023-06-04 01:01:00,2023-06-04 01:13:00,720,46,46
WDLeo_14,Ground station 1,26,2023-06-04 01:18:00,2023-06-04 01:26:00,480,46,47
WDLeo_17,Ground station 1,26,2023-06-04 01:26:00,2023-06-04 01:32:00,360,47,47
WDLeo_1,Ground station 1,23,2023-06-04 01:26:00,2023-06-04 01:38:00,720,47,47
WDLeo_13,Ground station 1,26,2023-06-04 01:45:00,2023-06-04 01:49:00,240,47,47
WDLeo_20,Ground station 1,23,2023-06-04 01:51:00,2023-06-04 01:58:00,420,47,47
WDLeo_4,Ground station 1,24,2023-06-04 01:52:00,2023-06-04 02:03:00,660,47,47
WDLeo_19,Ground station 1,26,2023-06-04 02:16:00,2023-06-04 02:24:00,480,47,47
WDLeo_3,Ground station 1,26,2023-06-04 02:17:00,2023-06-04 02:27:00,600,47,47
WDLeo_18,Ground station 1,26,2023-06-04 02:40:00,2023-06-04 02:50:00,600,47,47
WDLeo_2,Ground station 1,26,2023-06-04 02:43:00,2023-06-04 02:52:00,540,47,47
WDLeo_17,Ground station 1,27,2023-06-04 03:05:00,2023-06-04 03:15:00,600,48,48
WDLeo_1,Ground station 1,24,2023-06-04 03:09:00,2023-06-04 03:17:00,480,48,48
WDLeo_4,Ground station 1,25,2023-06-04 03:35:00,2023-06-04 03:41:00,360,48,48
WDLeo_20,Ground station 1,24,2023-06-04 03:30:00,2023-06-04 03:41:00,660,48,48
WDLeo_7,Ground station 1,25,2023-06-04 03:43:00,2023-06-04 03:48:00,300,48,48
WDLeo_3,Ground station 1,27,2023-06-04 04:01:00,2023-06-04 04:06:00,300,48,48
WDLeo_19,Ground station 1,27,2023-06-04 03:54:00,2023-06-04 04:06:00,720,48,48
WDLeo_6,Ground station 1,25,2023-06-04 04:06:00,2023-06-04 04:14:00,480,48,48
WDLeo_2,Ground station 1,27,2023-06-04 04:27:00,2023-06-04 04:31:00,240,48,48
WDLeo_18,Ground station 1,27,2023-06-04 04:19:00,2023-06-04 04:31:00,720,48,48
WDLeo_5,Ground station 1,22,2023-06-04 04:30:00,2023-06-04 04:40:00,600,48,49
WDLeo_1,Ground station 1,25,2023-06-04 04:53:00,2023-06-04 04:56:00,180,49,49
WDLeo_17,Ground station 1,28,2023-06-04 04:44:00,2023-06-04 04:56:00,720,49,49
WDLeo_8,Ground station 1,22,2023-06-04 04:54:00,2023-06-04 05:05:00,660,49,49
WDLeo_20,Ground station 1,25,2023-06-04 05:09:00,2023-06-04 05:20:00,660,49,49
WDLeo_4,Ground station 1,26,2023-06-04 05:18:00,2023-06-04 05:22:00,240,49,49
WDLeo_7,Ground station 1,26,2023-06-04 05:18:00,2023-06-04 05:30:00,720,49,49
WDLeo_19,Ground station 1,28,2023-06-04 05:34:00,2023-06-04 05:44:00,600,49,49
WDLeo_3,Ground station 1,28,2023-06-04 05:43:00,2023-06-04 05:48:00,300,49,49
WDLeo_6,Ground station 1,26,2023-06-04 05:43:00,2023-06-04 05:55:00,720,49,49
WDLeo_18,Ground station 1,28,2023-06-04 06:00:00,2023-06-04 06:08:00,480,49,50
WDLeo_2,Ground station 1,28,2023-06-04 06:08:00,2023-06-04 06:14:00,360,50,50
WDLeo_5,Ground station 1,23,2023-06-04 06:08:00,2023-06-04 06:20:00,720,50,50
WDLeo_17,Ground station 1,29,2023-06-04 06:26:00,2023-06-04 06:31:00,300,50,50
WDLeo_1,Ground station 1,26,2023-06-04 06:33:00,2023-06-04 06:40:00,420,50,50
WDLeo_8,Ground station 1,23,2023-06-04 06:34:00,2023-06-04 06:45:00,660,50,50
WDLeo_4,Ground station 1,27,2023-06-04 06:57:00,2023-06-04 07:06:00,540,50,50
WDLeo_7,Ground station 1,27,2023-06-04 06:59:00,2023-06-04 07:09:00,600,50,50
WDLeo_3,Ground station 1,29,2023-06-04 07:22:00,2023-06-04 07:31:00,540,50,50
WDLeo_6,Ground station 1,27,2023-06-04 07:25:00,2023-06-04 07:34:00,540,50,50
WDLeo_2,Ground station 1,29,2023-06-04 07:47:00,2023-06-04 07:57:00,600,51,51
WDLeo_5,Ground station 1,24,2023-06-04 07:50:00,2023-06-04 07:59:00,540,51,51
WDLeo_1,Ground station 1,27,2023-06-04 08:12:00,2023-06-04 08:23:00,660,51,51
WDLeo_8,Ground station 1,24,2023-06-04 08:16:00,2023-06-04 08:23:00,420,51,51
WDLeo_11,Ground station 1,25,2023-06-04 08:25:00,2023-06-04 08:30:00,300,51,51
WDLeo_4,Ground station 1,28,2023-06-04 08:36:00,2023-06-04 08:48:00,720,51,51
WDLeo_7,Ground station 1,28,2023-06-04 08:42:00,2023-06-04 08:48:00,360,51,51
WDLeo_10,Ground station 1,25,2023-06-04 08:48:00,2023-06-04 08:56:00,480,51,51
WDLeo_3,Ground station 1,30,2023-06-04 09:01:00,2023-06-04 09:13:00,720,51,51
WDLeo_6,Ground station 1,28,2023-06-04 09:08:00,2023-06-04 09:13:00,300,51,51
WDLeo_9,Ground station 1,25,2023-06-04 09:12:00,2023-06-04 09:22:00,600,51,52
WDLeo_2,Ground station 1,30,2023-06-04 09:26:00,2023-06-04 09:38:00,720,52,52
WDLeo_5,Ground station 1,25,2023-06-04 09:34:00,2023-06-04 09:38:00,240,52,52
WDLeo_12,Ground station 1,22,2023-06-04 09:36:00,2023-06-04 09:47:00,660,52,52
WDLeo_1,Ground station 1,28,2023-06-04 09:51:00,2023-06-04 10:02:00,660,52,52
WDLeo_8,Ground station 1,25,2023-06-04 10:00:00,2023-06-04 10:04:00,240,52,52
WDLeo_11,Ground station 1,26,2023-06-04 10:01:00,2023-06-04 10:12:00,660,52,52
WDLeo_4,Ground station 1,29,2023-06-04 10:16:00,2023-06-04 10:27:00,660,52,52
WDLeo_7,Ground station 1,29,2023-06-04 10:25:00,2023-06-04 10:29:00,240,52,52
WDLeo_10,Ground station 1,26,2023-06-04 10:25:00,2023-06-04 10:37:00,720,52,52
WDLeo_3,Ground station 1,31,2023-06-04 10:42:00,2023-06-04 10:50:00,480,52,52
WDLeo_6,Ground station 1,29,2023-06-04 10:50:00,2023-06-04 10:55:00,300,52,53
WDLeo_9,Ground station 1,26,2023-06-04 10:50:00,2023-06-04 11:02:00,720,52,53
WDLeo_2,Ground station 1,31,2023-06-04 11:08:00,2023-06-04 11:14:00,360,53,53
WDLeo_5,Ground station 1,26,2023-06-04 11:15:00,2023-06-04 11:21:00,360,53,53
WDLeo_12,Ground station 1,23,2023-06-04 11:15:00,2023-06-04 11:27:00,720,53,53
WDLeo_8,Ground station 1,26,2023-06-04 11:39:00,2023-06-04 11:47:00,480,53,53
WDLeo_11,Ground station 1,27,2023-06-04 11:41:00,2023-06-04 11:51:00,600,53,53
WDLeo_7,Ground station 1,30,2023-06-04 12:04:00,2023-06-04 12:13:00,540,53,53
WDLeo_10,Ground station 1,27,2023-06-04 12:06:00,2023-06-04 12:16:00,600,53,53
WDLeo_6,Ground station 1,30,2023-06-04 12:29:00,2023-06-04 12:39:00,600,53,54
WDLeo_9,Ground station 1,27,2023-06-04 12:32:00,2023-06-04 12:41:00,540,54,54
WDLeo_5,Ground station 1,27,2023-06-04 12:54:00,2023-06-04 13:04:00,600,54,54
WDLeo_12,Ground station 1,24,2023-06-04 12:58:00,2023-06-04 13:05:00,420,54,54
WDLeo_15,Ground station 1,26,2023-06-04 13:08:00,2023-06-04 13:11:00,180,54,54
WDLeo_8,Ground station 1,27,2023-06-04 13:18:00,2023-06-04 13:30:00,720,54,54
WDLeo_11,Ground station 1,28,2023-06-04 13:24:00,2023-06-04 13:30:00,360,54,54
WDLeo_14,Ground station 1,27,2023-06-04 13:30:00,2023-06-04 13:38:00,480,54,54
WDLeo_7,Ground station 1,31,2023-06-04 13:43:00,2023-06-04 13:55:00,720,54,54
WDLeo_10,Ground station 1,28,2023-06-04 13:50:00,2023-06-04 13:55:00,300,54,54
WDLeo_13,Ground station 1,27,2023-06-04 13:54:00,2023-06-04 14:04:00,600,54,54
WDLeo_6,Ground station 1,31,2023-06-04 14:08:00,2023-06-04 14:20:00,720,55,55
WDLeo_9,Ground station 1,28,2023-06-04 14:16:00,2023-06-04 14:20:00,240,55,55
WDLeo_16,Ground station 1,23,2023-06-04 14:18:00,2023-06-04 14:29:00,660,55,55
WDLeo_5,Ground station 1,28,2023-06-04 14:33:00,2023-06-04 14:44:00,660,55,55
WDLeo_12,Ground station 1,25,2023-06-04 14:42:00,2023-06-04 14:45:00,180,55,55
WDLeo_15,Ground station 1,27,2023-06-04 14:43:00,2023-06-04 14:54:00,660,55,55
WDLeo_8,Ground station 1,28,2023-06-04 14:58:00,2023-06-04 15:09:00,660,55,55
WDLeo_11,Ground station 1,29,2023-06-04 15:07:00,2023-06-04 15:11:00,240,55,55
WDLeo_14,Ground station 1,28,2023-06-04 15:07:00,2023-06-04 15:19:00,720,55,55
WDLeo_7,Ground station 1,32,2023-06-04 15:24:00,2023-06-04 15:33:00,540,55,55
WDLeo_10,Ground station 1,29,2023-06-04 15:32:00,2023-06-04 15:37:00,300,55,55
WDLeo_13,Ground station 1,28,2023-06-04 15:32:00,2023-06-04 15:44:00,720,55,56
WDLeo_6,Ground station 1,32,2023-06-04 15:49:00,2023-06-04 15:56:00,420,56,56
WDLeo_9,Ground station 1,29,2023-06-04 15:57:00,2023-06-04 16:03:00,360,56,56
WDLeo_16,Ground station 1,24,2023-06-04 15:57:00,2023-06-04 16:09:00,720,56,56
WDLeo_5,Ground station 1,29,2023-06-04 16:17:00,2023-06-04 16:18:00,60,56,56
WDLeo_12,Ground station 1,26,2023-06-04 16:22:00,2023-06-04 16:29:00,420,56,56
WDLeo_15,Ground station 1,28,2023-06-04 16:23:00,2023-06-04 16:33:00,600,56,56
WDLeo_11,Ground station 1,30,2023-06-04 16:46:00,2023-06-04 16:55:00,540,56,56
WDLeo_14,Ground station 1,29,2023-06-04 16:48:00,2023-06-04 16:58:00,600,56,56
WDLeo_10,Ground station 1,30,2023-06-04 17:11:00,2023-06-04 17:21:00,600,56,57
WDLeo_13,Ground station 1,29,2023-06-04 17:14:00,2023-06-04 17:23:00,540,56,57
WDLeo_9,Ground station 1,30,2023-06-04 17:36:00,2023-06-04 17:46:00,600,57,57
WDLeo_16,Ground station 1,25,2023-06-04 17:40:00,2023-06-04 17:47:00,420,57,57
WDLeo_19,Ground station 1,29,2023-06-04 17:51:00,2023-06-04 17:52:00,60,57,57
WDLeo_12,Ground station 1,27,2023-06-04 18:00:00,2023-06-04 18:12:00,720,57,57
WDLeo_15,Ground station 1,29,2023-06-04 18:06:00,2023-06-04 18:12:00,360,57,57
WDLeo_18,Ground station 1,29,2023-06-04 18:13:00,2023-06-04 18:20:00,420,57,57
WDLeo_11,Ground station 1,31,2023-06-04 18:25:00,2023-06-04 18:37:00,720,57,57
WDLeo_14,Ground station 1,30,2023-06-04 18:32:00,2023-06-04 18:37:00,300,57,57
WDLeo_17,Ground station 1,30,2023-06-04 18:36:00,2023-06-04 18:45:00,540,57,57
WDLeo_10,Ground station 1,31,2023-06-04 18:50:00,2023-06-04 19:02:00,720,57,58
WDLeo_13,Ground station 1,30,2023-06-04 18:58:00,2023-06-04 19:02:00,240,58,58
WDLeo_20,Ground station 1,26,2023-06-04 19:00:00,2023-06-04 19:11:00,660,58,58
WDLeo_9,Ground station 1,31,2023-06-04 19:15:00,2023-06-04 19:26:00,660,58,58
WDLeo_16,Ground station 1,26,2023-06-04 19:24:00,2023-06-04 19:27:00,180,58,58
WDLeo_19,Ground station 1,30,2023-06-04 19:25:00,2023-06-04 19:36:00,660,58,58
WDLeo_12,Ground station 1,28,2023-06-04 19:40:00,2023-06-04 19:51:00,660,58,58
WDLeo_15,Ground station 1,30,2023-06-04 19:49:00,2023-06-04 19:53:00,240,58,58
WDLeo_18,Ground station 1,30,2023-06-04 19:49:00,2023-06-04 20:01:00,720,58,58
WDLeo_11,Ground station 1,32,2023-06-04 20:05:00,2023-06-04 20:15:00,600,58,58
WDLeo_14,Ground station 1,31,2023-06-04 20:14:00,2023-06-04 20:19:00,300,58,58
WDLeo_17,Ground station 1,31,2023-06-04 20:14:00,2023-06-04 20:26:00,720,58,58
WDLeo_10,Ground station 1,32,2023-06-04 20:31:00,2023-06-04 20:39:00,480,59,59
WDLeo_13,Ground station 1,31,2023-06-04 20:39:00,2023-06-04 20:45:00,360,59,59
WDLeo_20,Ground station 1,27,2023-06-04 20:39:00,2023-06-04 20:51:00,720,59,59
WDLeo_9,Ground station 1,32,2023-06-04 20:58:00,2023-06-04 21:01:00,180,59,59
WDLeo_16,Ground station 1,27,2023-06-04 21:04:00,2023-06-04 21:11:00,420,59,59
WDLeo_19,Ground station 1,31,2023-06-04 21:04:00,2023-06-04 21:15:00,660,59,59
WDLeo_15,Ground station 1,31,2023-06-04 21:28:00,2023-06-04 21:37:00,540,59,59
WDLeo_18,Ground station 1,31,2023-06-04 21:30:00,2023-06-04 21:40:00,600,59,59
WDLeo_14,Ground station 1,32,2023-06-04 21:53:00,2023-06-04 22:03:00,600,59,59
WDLeo_17,Ground station 1,32,2023-06-04 21:56:00,2023-06-04 22:05:00,540,59,60
WDLeo_13,Ground station 1,32,2023-06-04 22:18:00,2023-06-04 22:28:00,600,60,60
WDLeo_20,Ground station 1,28,2023-06-04 22:22:00,2023-06-04 22:29:00,420,60,60
WDLeo_16,Ground station 1,28,2023-06-04 22:42:00,2023-06-04 22:54:00,720,60,60
WDLeo_19,Ground station 1,32,2023-06-04 22:48:00,2023-06-04 22:54:00,360,60,60
WDLeo_3,Ground station 1,32,2023-06-04 22:55:00,2023-06-04 23:01:00,360,60,60
WDLeo_15,Ground station 1,32,2023-06-04 23:07:00,2023-06-04 23:19:00,720,60,60
WDLeo_18,Ground station 1,32,2023-06-04 23:14:00,2023-06-04 23:19:00,300,60,60
WDLeo_2,Ground station 1,32,2023-06-04 23:18:00,2023-06-04 23:27:00,540,60,60
WDLeo_14,Ground station 1,33,2023-06-04 23:32:00,2023-06-04 23:44:00,720,60,61
WDLeo_17,Ground station 1,33,2023-06-04 23:40:00,2023-06-04 23:44:00,240,61,61
WDLeo_1,Ground station 1,29,2023-06-04 23:42:00,2023-06-04 23:53:00,660,61,61
WDLeo_13,Ground station 1,33,2023-06-04 23:57:00,2023-06-05 00:08:00,660,61,61
WDLeo_20,Ground station 1,29,2023-06-05 00:06:00,2023-06-05 00:09:00,180,61,61
WDLeo_4,Ground station 1,30,2023-06-05 00:07:00,2023-06-05 00:18:00,660,61,61
WDLeo_16,Ground station 1,29,2023-06-05 00:22:00,2023-06-05 00:33:00,660,61,61
WDLeo_19,Ground station 1,33,2023-06-05 00:31:00,2023-06-05 00:34:00,180,61,61
WDLeo_3,Ground station 1,33,2023-06-05 00:31:00,2023-06-05 00:43:00,720,61,61
WDLeo_15,Ground station 1,33,2023-06-05 00:47:00,2023-06-05 00:57:00,600,61,61
WDLeo_18,Ground station 1,33,2023-06-05 00:56:00,2023-06-05 01:00:00,240,61,61
WDLeo_2,Ground station 1,33,2023-06-05 00:56:00,2023-06-05 01:08:00,720,61,61
WDLeo_14,Ground station 1,34,2023-06-05 01:13:00,2023-06-05 01:21:00,480,61,62
WDLeo_17,Ground station 1,34,2023-06-05 01:21:00,2023-06-05 01:27:00,360,62,62
WDLeo_1,Ground station 1,30,2023-06-05 01:21:00,2023-06-05 01:33:00,720,62,62
WDLeo_13,Ground station 1,34,2023-06-05 01:39:00,2023-06-05 01:44:00,300,62,62
WDLeo_20,Ground station 1,30,2023-06-05 01:46:00,2023-06-05 01:53:00,420,62,62
WDLeo_4,Ground station 1,31,2023-06-05 01:46:00,2023-06-05 01:57:00,660,62,62
WDLeo_19,Ground station 1,34,2023-06-05 02:10:00,2023-06-05 02:19:00,540,62,62
WDLeo_3,Ground station 1,34,2023-06-05 02:12:00,2023-06-05 02:22:00,600,62,62
WDLeo_18,Ground station 1,34,2023-06-05 02:35:00,2023-06-05 02:44:00,540,62,62
WDLeo_2,Ground station 1,34,2023-06-05 02:37:00,2023-06-05 02:47:00,600,62,62
WDLeo_17,Ground station 1,35,2023-06-05 03:00:00,2023-06-05 03:10:00,600,63,63
WDLeo_1,Ground station 1,31,2023-06-05 03:03:00,2023-06-05 03:11:00,480,63,63
WDLeo_20,Ground station 1,31,2023-06-05 03:24:00,2023-06-05 03:35:00,660,63,63
WDLeo_4,Ground station 1,32,2023-06-05 03:29:00,2023-06-05 03:36:00,420,63,63
WDLeo_7,Ground station 1,33,2023-06-05 03:37:00,2023-06-05 03:43:00,360,63,63
WDLeo_3,Ground station 1,35,2023-06-05 03:55:00,2023-06-05 04:01:00,360,63,63
WDLeo_19,Ground station 1,35,2023-06-05 03:49:00,2023-06-05 04:01:00,720,63,63
WDLeo_6,Ground station 1,33,2023-06-05 04:01:00,2023-06-05 04:09:00,480,63,63
WDLeo_2,Ground station 1,35,2023-06-05 04:21:00,2023-06-05 04:26:00,300,63,64
WDLeo_18,Ground station 1,35,2023-06-05 04:14:00,2023-06-05 04:26:00,720,63,64
WDLeo_5,Ground station 1,30,2023-06-05 04:24:00,2023-06-05 04:35:00,660,63,64
WDLeo_17,Ground station 1,36,2023-06-05 04:39:00,2023-06-05 04:50:00,660,64,64
WDLeo_1,Ground station 1,32,2023-06-05 04:47:00,2023-06-05 04:51:00,240,64,64
WDLeo_8,Ground station 1,29,2023-06-05 04:49:00,2023-06-05 05:00:00,660,64,64
WDLeo_20,Ground station 1,32,2023-06-05 05:04:00,2023-06-05 05:15:00,660,64,64
WDLeo_4,Ground station 1,33,2023-06-05 05:13:00,2023-06-05 05:16:00,180,64,64
WDLeo_7,Ground station 1,34,2023-06-05 05:13:00,2023-06-05 05:25:00,720,64,64
WDLeo_19,Ground station 1,36,2023-06-05 05:29:00,2023-06-05 05:39:00,600,64,64
WDLeo_3,Ground station 1,36,2023-06-05 05:38:00,2023-06-05 05:42:00,240,64,64
WDLeo_6,Ground station 1,34,2023-06-05 05:38:00,2023-06-05 05:50:00,720,64,64
WDLeo_18,Ground station 1,36,2023-06-05 05:55:00,2023-06-05 06:03:00,480,64,65
WDLeo_2,Ground station 1,36,2023-06-05 06:03:00,2023-06-05 06:08:00,300,65,65
WDLeo_5,Ground station 1,31,2023-06-05 06:03:00,2023-06-05 06:15:00,720,65,65
WDLeo_17,Ground station 1,37,2023-06-05 06:21:00,2023-06-05 06:26:00,300,65,65
WDLeo_1,Ground station 1,33,2023-06-05 06:27:00,2023-06-05 06:34:00,420,65,65
WDLeo_8,Ground station 1,30,2023-06-05 06:28:00,2023-06-05 06:39:00,660,65,65
WDLeo_4,Ground station 1,34,2023-06-05 06:52:00,2023-06-05 07:00:00,480,65,65
WDLeo_7,Ground station 1,35,2023-06-05 06:54:00,2023-06-05 07:04:00,600,65,65
WDLeo_3,Ground station 1,37,2023-06-05 07:17:00,2023-06-05 07:26:00,540,65,65
WDLeo_6,Ground station 1,35,2023-06-05 07:19:00,2023-06-05 07:29:00,600,65,65
WDLeo_2,Ground station 1,37,2023-06-05 07:42:00,2023-06-05 07:52:00,600,66,66
WDLeo_5,Ground station 1,32,2023-06-05 07:45:00,2023-06-05 07:53:00,480,66,66
WDLeo_1,Ground station 1,34,2023-06-05 08:06:00,2023-06-05 08:17:00,660,66,66
WDLeo_8,Ground station 1,31,2023-06-05 08:11:00,2023-06-05 08:18:00,420,66,66
WDLeo_11,Ground station 1,33,2023-06-05 08:20:00,2023-06-05 08:24:00,240,66,66
WDLeo_4,Ground station 1,35,2023-06-05 08:31:00,2023-06-05 08:43:00,720,66,66
WDLeo_7,Ground station 1,36,2023-06-05 08:37:00,2023-06-05 08:43:00,360,66,66
WDLeo_10,Ground station 1,33,2023-06-05 08:43:00,2023-06-05 08:51:00,480,66,66
WDLeo_3,Ground station 1,38,2023-06-05 08:56:00,2023-06-05 09:08:00,720,66,66
WDLeo_6,Ground station 1,36,2023-06-05 09:03:00,2023-06-05 09:08:00,300,66,66
WDLeo_9,Ground station 1,33,2023-06-05 09:07:00,2023-06-05 09:16:00,540,66,67
WDLeo_2,Ground station 1,38,2023-06-05 09:21:00,2023-06-05 09:32:00,660,67,67
WDLeo_5,Ground station 1,33,2023-06-05 09:29:00,2023-06-05 09:33:00,240,67,67
WDLeo_12,Ground station 1,29,2023-06-05 09:31:00,2023-06-05 09:42:00,660,67,67
WDLeo_1,Ground station 1,35,2023-06-05 09:46:00,2023-06-05 09:57:00,660,67,67
WDLeo_8,Ground station 1,32,2023-06-05 09:55:00,2023-06-05 09:58:00,180,67,67
WDLeo_11,Ground station 1,34,2023-06-05 09:55:00,2023-06-05 10:07:00,720,67,67
WDLeo_4,Ground station 1,36,2023-06-05 10:11:00,2023-06-05 10:21:00,600,67,67
WDLeo_7,Ground station 1,37,2023-06-05 10:20:00,2023-06-05 10:24:00,240,67,67
WDLeo_10,Ground station 1,34,2023-06-05 10:20:00,2023-06-05 10:32:00,720,67,67
WDLeo_3,Ground station 1,39,2023-06-05 10:36:00,2023-06-05 10:45:00,540,67,67
WDLeo_6,Ground station 1,37,2023-06-05 10:45:00,2023-06-05 10:50:00,300,67,68
WDLeo_9,Ground station 1,34,2023-06-05 10:45:00,2023-06-05 10:57:00,720,67,68
WDLeo_2,Ground station 1,39,2023-06-05 11:02:00,2023-06-05 11:09:00,420,68,68
WDLeo_5,Ground station 1,34,2023-06-05 11:09:00,2023-06-05 11:16:00,420,68,68
WDLeo_12,Ground station 1,30,2023-06-05 11:10:00,2023-06-05 11:21:00,660,68,68
WDLeo_8,Ground station 1,33,2023-06-05 11:34:00,2023-06-05 11:42:00,480,68,68
WDLeo_11,Ground station 1,35,2023-06-05 11:35:00,2023-06-05 11:46:00,660,68,68
WDLeo_7,Ground station 1,38,2023-06-05 11:59:00,2023-06-05 12:08:00,540,68,68
WDLeo_10,Ground station 1,35,2023-06-05 12:01:00,2023-06-05 12:11:00,600,68,68
WDLeo_6,Ground station 1,38,2023-06-05 12:24:00,2023-06-05 12:34:00,600,68,69
WDLeo_9,Ground station 1,35,2023-06-05 12:27:00,2023-06-05 12:35:00,480,69,69
WDLeo_5,Ground station 1,35,2023-06-05 12:48:00,2023-06-05 12:59:00,660,69,69
WDLeo_12,Ground station 1,31,2023-06-05 12:53:00,2023-06-05 13:00:00,420,69,69
WDLeo_15,Ground station 1,34,2023-06-05 13:03:00,2023-06-05 13:06:00,180,69,69
WDLeo_8,Ground station 1,34,2023-06-05 13:13:00,2023-06-05 13:24:00,660,69,69
WDLeo_11,Ground station 1,36,2023-06-05 13:19:00,2023-06-05 13:25:00,360,69,69
WDLeo_14,Ground station 1,35,2023-06-05 13:25:00,2023-06-05 13:33:00,480,69,69
WDLeo_7,Ground station 1,39,2023-06-05 13:38:00,2023-06-05 13:50:00,720,69,69
WDLeo_10,Ground station 1,36,2023-06-05 13:45:00,2023-06-05 13:50:00,300,69,69
WDLeo_13,Ground station 1,35,2023-06-05 13:49:00,2023-06-05 13:58:00,540,69,69
WDLeo_6,Ground station 1,39,2023-06-05 14:03:00,2023-06-05 14:14:00,660,70,70
WDLeo_9,Ground station 1,36,2023-06-05 14:11:00,2023-06-05 14:15:00,240,70,70
WDLeo_16,Ground station 1,30,2023-06-05 14:13:00,2023-06-05 14:24:00,660,70,70
WDLeo_5,Ground station 1,36,2023-06-05 14:28:00,2023-06-05 14:39:00,660,70,70
WDLeo_12,Ground station 1,32,2023-06-05 14:36:00,2023-06-05 14:40:00,240,70,70
WDLeo_15,Ground station 1,35,2023-06-05 14:37:00,2023-06-05 14:49:00,720,70,70
WDLeo_8,Ground station 1,35,2023-06-05 14:53:00,2023-06-05 15:03:00,600,70,70
WDLeo_11,Ground station 1,37,2023-06-05 15:02:00,2023-06-05 15:06:00,240,70,70
WDLeo_14,Ground station 1,36,2023-06-05 15:02:00,2023-06-05 15:14:00,720,70,70
WDLeo_7,Ground station 1,40,2023-06-05 15:18:00,2023-06-05 15:27:00,540,70,70
WDLeo_10,Ground station 1,37,2023-06-05 15:27:00,2023-06-05 15:32:00,300,70,70
WDLeo_13,Ground station 1,36,2023-06-05 15:27:00,2023-06-05 15:39:00,720,70,71
WDLeo_6,Ground station 1,40,2023-06-05 15:44:00,2023-06-05 15:51:00,420,71,71
WDLeo_9,Ground station 1,37,2023-06-05 15:52:00,2023-06-05 15:58:00,360,71,71
WDLeo_16,Ground station 1,31,2023-06-05 15:52:00,2023-06-05 16:03:00,660,71,71
WDLeo_5,Ground station 1,37,2023-06-05 16:11:00,2023-06-05 16:13:00,120,71,71
WDLeo_12,Ground station 1,33,2023-06-05 16:16:00,2023-06-05 16:24:00,480,71,71
WDLeo_15,Ground station 1,36,2023-06-05 16:17:00,2023-06-05 16:28:00,660,71,71
WDLeo_11,Ground station 1,38,2023-06-05 16:41:00,2023-06-05 16:50:00,540,71,71
WDLeo_14,Ground station 1,37,2023-06-05 16:43:00,2023-06-05 16:53:00,600,71,71
WDLeo_10,Ground station 1,38,2023-06-05 17:06:00,2023-06-05 17:15:00,540,71,72
WDLeo_13,Ground station 1,37,2023-06-05 17:09:00,2023-06-05 17:17:00,480,71,72
WDLeo_9,Ground station 1,38,2023-06-05 17:30:00,2023-06-05 17:41:00,660,72,72
WDLeo_16,Ground station 1,32,2023-06-05 17:34:00,2023-06-05 17:42:00,480,72,72
WDLeo_19,Ground station 1,37,2023-06-05 17:46:00,2023-06-05 17:47:00,60,72,72
WDLeo_12,Ground station 1,34,2023-06-05 17:55:00,2023-06-05 18:06:00,660,72,72
WDLeo_15,Ground station 1,37,2023-06-05 18:01:00,2023-06-05 18:07:00,360,72,72
WDLeo_18,Ground station 1,37,2023-06-05 18:07:00,2023-06-05 18:14:00,420,72,72
WDLeo_11,Ground station 1,39,2023-06-05 18:20:00,2023-06-05 18:32:00,720,72,72
WDLeo_14,Ground station 1,38,2023-06-05 18:27:00,2023-06-05 18:32:00,300,72,72
WDLeo_17,Ground station 1,38,2023-06-05 18:31:00,2023-06-05 18:40:00,540,72,72
WDLeo_10,Ground station 1,39,2023-06-05 18:45:00,2023-06-05 18:56:00,660,72,73
WDLeo_13,Ground station 1,38,2023-06-05 18:53:00,2023-06-05 18:57:00,240,73,73
WDLeo_20,Ground station 1,33,2023-06-05 18:55:00,2023-06-05 19:06:00,660,73,73
WDLeo_9,Ground station 1,39,2023-06-05 19:10:00,2023-06-05 19:21:00,660,73,73
WDLeo_16,Ground station 1,33,2023-06-05 19:18:00,2023-06-05 19:22:00,240,73,73
WDLeo_19,Ground station 1,38,2023-06-05 19:19:00,2023-06-05 19:31:00,720,73,73
WDLeo_12,Ground station 1,35,2023-06-05 19:35:00,2023-06-05 19:46:00,660,73,73
WDLeo_15,Ground station 1,38,2023-06-05 19:44:00,2023-06-05 19:47:00,180,73,73
WDLeo_18,Ground station 1,38,2023-06-05 19:44:00,2023-06-05 19:56:00,720,73,73
WDLeo_11,Ground station 1,40,2023-06-05 20:00:00,2023-06-05 20:10:00,600,73,73
WDLeo_14,Ground station 1,39,2023-06-05 20:09:00,2023-06-05 20:13:00,240,73,73
WDLeo_17,Ground station 1,39,2023-06-05 20:09:00,2023-06-05 20:21:00,720,73,73
WDLeo_10,Ground station 1,40,2023-06-05 20:26:00,2023-06-05 20:33:00,420,74,74
WDLeo_13,Ground station 1,39,2023-06-05 20:34:00,2023-06-05 20:39:00,300,74,74
WDLeo_20,Ground station 1,34,2023-06-05 20:34:00,2023-06-05 20:45:00,660,74,74
WDLeo_9,Ground station 1,40,2023-06-05 20:52:00,2023-06-05 20:56:00,240,74,74
WDLeo_16,Ground station 1,34,2023-06-05 20:58:00,2023-06-05 21:06:00,480,74,74
WDLeo_19,Ground station 1,39,2023-06-05 20:59:00,2023-06-05 21:10:00,660,74,74
WDLeo_15,Ground station 1,39,2023-06-05 21:23:00,2023-06-05 21:31:00,480,74,74
WDLeo_18,Ground station 1,39,2023-06-05 21:25:00,2023-06-05 21:35:00,600,74,74
WDLeo_14,Ground station 1,40,2023-06-05 21:48:00,2023-06-05 21:57:00,540,74,74
WDLeo_17,Ground station 1,40,2023-06-05 21:50:00,2023-06-05 21:59:00,540,74,75
WDLeo_13,Ground station 1,40,2023-06-05 22:12:00,2023-06-05 22:23:00,660,75,75
WDLeo_20,Ground station 1,35,2023-06-05 22:16:00,2023-06-05 22:24:00,480,75,75
WDLeo_16,Ground station 1,35,2023-06-05 22:37:00,2023-06-05 22:48:00,660,75,75
WDLeo_19,Ground station 1,40,2023-06-05 22:42:00,2023-06-05 22:49:00,420,75,75
WDLeo_3,Ground station 1,40,2023-06-05 22:50:00,2023-06-05 22:56:00,360,75,75
WDLeo_15,Ground station 1,40,2023-06-05 23:02:00,2023-06-05 23:13:00,660,75,75
WDLeo_18,Ground station 1,40,2023-06-05 23:08:00,2023-06-05 23:14:00,360,75,75
